{
  "1/2": {
    "precinct": "1/2",
    "lat": 40.209585,
    "lng": 44.566617,
    "station": "Թիվ 51 մ/մանկապարտեզ Ավան, 6 փ. 52/1",
    "marz": "Երևան",
    "community": "Ավան",
    "source": "elections.am/AccessibilityMap",
    "fetchedAt": "2026-06-02T09:44:57.199Z"
  },
  "1/3": {
    "precinct": "1/3",
    "lat": 40.21050916,
    "lng": 44.56705391,
    "station": "Թիվ 87 դպրոց Ավան, Խուդյակով փ. 44",
    "marz": "Երևան",
    "community": "Ավան",
    "source": "elections.am/AccessibilityMap",
    "fetchedAt": "2026-06-02T09:44:57.199Z"
  },
  "1/4": {
    "precinct": "1/4",
    "lat": 40.21051099,
    "lng": 44.5670898,
    "station": "Թիվ 87 դպրոց Ավան, Խուդյակով փ. 44",
    "marz": "Երևան",
    "community": "Ավան",
    "source": "elections.am/AccessibilityMap",
    "fetchedAt": "2026-06-02T09:44:57.199Z"
  },
  "1/5": {
    "precinct": "1/5",
    "lat": 40.215869,
    "lng": 44.564308,
    "station": "Թիվ 104 դպրոց Ավան, Աճառյան 5",
    "marz": "Երևան",
    "community": "Ավան",
    "source": "elections.am/AccessibilityMap",
    "fetchedAt": "2026-06-02T09:44:57.199Z"
  },
  "1/6": {
    "precinct": "1/6",
    "lat": 40.21840453,
    "lng": 44.56441943,
    "station": "Օհանյանի անվան հիմն. դպրոց Ավան, Աճառյան փկղ. 15/1",
    "marz": "Երևան",
    "community": "Ավան",
    "source": "elections.am/AccessibilityMap",
    "fetchedAt": "2026-06-02T09:44:57.199Z"
  },
  "1/7": {
    "precinct": "1/7",
    "lat": 40.22205469,
    "lng": 44.57004745,
    "station": "Թիվ 56 մ/մանկապարտեզ Ավան Առինջ, 1 մ/շ, 1/14",
    "marz": "Երևան",
    "community": "Ավան",
    "source": "elections.am/AccessibilityMap",
    "fetchedAt": "2026-06-02T09:44:57.199Z"
  },
  "1/8": {
    "precinct": "1/8",
    "lat": 40.22207745,
    "lng": 44.57002701,
    "station": "Թիվ 56 մ/մանկապարտեզ Ավան Առինջ, 1 մ/շ, 1/14",
    "marz": "Երևան",
    "community": "Ավան",
    "source": "elections.am/AccessibilityMap",
    "fetchedAt": "2026-06-02T09:44:57.199Z"
  },
  "1/9": {
    "precinct": "1/9",
    "lat": 40.2260901,
    "lng": 44.57176292,
    "station": "Թիվ 180 դպրոց Ավան Առինջ թաղ., 2 մ/շ",
    "marz": "Երևան",
    "community": "Ավան",
    "source": "elections.am/AccessibilityMap",
    "fetchedAt": "2026-06-02T09:44:57.199Z"
  },
  "1/10": {
    "precinct": "1/10",
    "lat": 40.222326,
    "lng": 44.57430047,
    "station": "Թիվ 55 մ/մանկապարտեզ Ավան Առինջ թաղ. 2մ/շ 1/6",
    "marz": "Երևան",
    "community": "Ավան",
    "source": "elections.am/AccessibilityMap",
    "fetchedAt": "2026-06-02T09:44:57.199Z"
  },
  "1/11": {
    "precinct": "1/11",
    "lat": 40.21204786,
    "lng": 44.56849081,
    "station": "Նախկին 7մ/մ, Ավան-Առինջ թաղ. 1մ/շ 3/14",
    "marz": "Երևան",
    "community": "Ավան",
    "source": "elections.am/AccessibilityMap",
    "fetchedAt": "2026-06-02T09:44:57.199Z"
  },
  "1/12": {
    "precinct": "1/12",
    "lat": 40.219483,
    "lng": 44.58091,
    "station": "Ավանի շախմատի մանկապատանեկան մարզադպրոց Նարեկացի թաղ. 38",
    "marz": "Երևան",
    "community": "Ավան",
    "source": "elections.am/AccessibilityMap",
    "fetchedAt": "2026-06-02T09:44:57.199Z"
  },
  "1/13": {
    "precinct": "1/13",
    "lat": 40.22014617,
    "lng": 44.57787559,
    "station": "Ավանի մշակույթի տուն, Ավան, Բաբաջանյան 18/13",
    "marz": "Երևան",
    "community": "Ավան",
    "source": "elections.am/AccessibilityMap",
    "fetchedAt": "2026-06-02T09:44:57.199Z"
  },
  "1/14": {
    "precinct": "1/14",
    "lat": 40.218939,
    "lng": 44.57482,
    "station": "Գ. Բուդաղյանի անվան արվեստի դպրոց, Ալմա-Աթայի 3",
    "marz": "Երևան",
    "community": "Ավան",
    "source": "elections.am/AccessibilityMap",
    "fetchedAt": "2026-06-02T09:44:57.199Z"
  },
  "1/15": {
    "precinct": "1/15",
    "lat": 40.218678,
    "lng": 44.574376,
    "station": "«Երևանի հ.170 ավագ դպրոց» ՊՈԱԿ, Թումանյան թաղամաս 30",
    "marz": "Երևան",
    "community": "Ավան",
    "source": "elections.am/AccessibilityMap",
    "fetchedAt": "2026-06-02T09:44:57.199Z"
  },
  "1/16": {
    "precinct": "1/16",
    "lat": 40.21675427,
    "lng": 44.57569599,
    "station": "Թիվ 52 մ/մանկապարտեզ Իսահակյան թաղ. 2/4",
    "marz": "Երևան",
    "community": "Ավան",
    "source": "elections.am/AccessibilityMap",
    "fetchedAt": "2026-06-02T09:44:57.199Z"
  },
  "1/17": {
    "precinct": "1/17",
    "lat": 40.217402,
    "lng": 44.576338,
    "station": "Թիվ 171 դպրոց Իսահակյան թաղ.",
    "marz": "Երևան",
    "community": "Ավան",
    "source": "elections.am/AccessibilityMap",
    "fetchedAt": "2026-06-02T09:44:57.199Z"
  },
  "1/18": {
    "precinct": "1/18",
    "lat": 40.216699,
    "lng": 44.581072,
    "station": "Ավանի Մանկապատանեկան համալիր մարզադպրոց Ավան, Խուդյակով փող. 214",
    "marz": "Երևան",
    "community": "Ավան",
    "source": "elections.am/AccessibilityMap",
    "fetchedAt": "2026-06-02T09:44:57.199Z"
  },
  "1/19": {
    "precinct": "1/19",
    "lat": 40.214698,
    "lng": 44.582256,
    "station": "Գ. Ստարովոյտովայի անվան 177 դպրոց Դուրյան թաղ. 24",
    "marz": "Երևան",
    "community": "Ավան",
    "source": "elections.am/AccessibilityMap",
    "fetchedAt": "2026-06-02T09:44:57.199Z"
  },
  "1/20": {
    "precinct": "1/20",
    "lat": 40.217007,
    "lng": 44.552211,
    "station": "ԵՊՀ մասնաճյուղ Ծարավ Աղբյուրի 55",
    "marz": "Երևան",
    "community": "Ավան",
    "source": "elections.am/AccessibilityMap",
    "fetchedAt": "2026-06-02T09:44:57.199Z"
  },
  "1/21": {
    "precinct": "1/21",
    "lat": 40.213859,
    "lng": 44.582242,
    "station": "Թիվ 54 մ/մանկապարտեզ Դուրյան թաղ. 35/1",
    "marz": "Երևան",
    "community": "Ավան",
    "source": "elections.am/AccessibilityMap",
    "fetchedAt": "2026-06-02T09:44:57.199Z"
  },
  "1/22": {
    "precinct": "1/22",
    "lat": 40.212254,
    "lng": 44.57948,
    "station": "Թիվ 57 մ/մանկապարտեզ Դուրյան թաղ. 52",
    "marz": "Երևան",
    "community": "Ավան",
    "source": "elections.am/AccessibilityMap",
    "fetchedAt": "2026-06-02T09:44:57.199Z"
  },
  "1/23": {
    "precinct": "1/23",
    "lat": 40.213859,
    "lng": 44.582242,
    "station": "Թիվ 54 մ/մանկապարտեզ Դուրյան թաղ. 35/1",
    "marz": "Երևան",
    "community": "Ավան",
    "source": "elections.am/AccessibilityMap",
    "fetchedAt": "2026-06-02T09:44:57.199Z"
  },
  "2/1": {
    "precinct": "2/1",
    "lat": 40.193827,
    "lng": 44.563687,
    "station": "Հ.105 մսուր-մանկապարտեզ, Բաղյան փող. 2",
    "marz": "Երևան",
    "community": "Նոր Նորք",
    "source": "elections.am/AccessibilityMap",
    "fetchedAt": "2026-06-02T09:44:57.199Z"
  },
  "2/2": {
    "precinct": "2/2",
    "lat": 40.194668,
    "lng": 44.566437,
    "station": "«Երևանի Մ. Խորենացու անվան հ.143 հիմնական դպրոց» ՊՈԱԿ, Բաղյան 5",
    "marz": "Երևան",
    "community": "Նոր Նորք",
    "source": "elections.am/AccessibilityMap",
    "fetchedAt": "2026-06-02T09:44:57.199Z"
  },
  "2/3": {
    "precinct": "2/3",
    "lat": 40.194668,
    "lng": 44.566437,
    "station": "«Երևանի Մ. Խորենացու անվան հ.143 հիմնական դպրոց» ՊՈԱԿ, Բաղյան 5",
    "marz": "Երևան",
    "community": "Նոր Նորք",
    "source": "elections.am/AccessibilityMap",
    "fetchedAt": "2026-06-02T09:44:57.199Z"
  },
  "2/4": {
    "precinct": "2/4",
    "lat": 40.189702,
    "lng": 44.568781,
    "station": "Ս.Ասլամազյանի անվ. երաժշտ. դպրոց, Գյուլիքեխվյան 6",
    "marz": "Երևան",
    "community": "Նոր Նորք",
    "source": "elections.am/AccessibilityMap",
    "fetchedAt": "2026-06-02T09:44:57.199Z"
  },
  "2/5": {
    "precinct": "2/5",
    "lat": 40.190018,
    "lng": 44.569512,
    "station": "Հ.107 մանկապարտեզ, Բակունցի 4",
    "marz": "Երևան",
    "community": "Նոր Նորք",
    "source": "elections.am/AccessibilityMap",
    "fetchedAt": "2026-06-02T09:44:57.199Z"
  },
  "2/6": {
    "precinct": "2/6",
    "lat": 40.191328,
    "lng": 44.570748,
    "station": "«Երևանի Ֆ. Նանսենի անվան հ.150 հիմնական դպրոց» ՊՈԱԿ, Բակունցի 6",
    "marz": "Երևան",
    "community": "Նոր Նորք",
    "source": "elections.am/AccessibilityMap",
    "fetchedAt": "2026-06-02T09:44:57.199Z"
  },
  "2/7": {
    "precinct": "2/7",
    "lat": 40.1913,
    "lng": 44.570919,
    "station": "Հ.109 մսուր-մանկապարտեզ, Բակունցի 2-րդ նրբ. 25/4",
    "marz": "Երևան",
    "community": "Նոր Նորք",
    "source": "elections.am/AccessibilityMap",
    "fetchedAt": "2026-06-02T09:44:57.199Z"
  },
  "2/8": {
    "precinct": "2/8",
    "lat": 40.190383,
    "lng": 44.574659,
    "station": "Հ.108 մանկապարտեզ, Բակունցի  1-ին նրբ. 7/2",
    "marz": "Երևան",
    "community": "Նոր Նորք",
    "source": "elections.am/AccessibilityMap",
    "fetchedAt": "2026-06-02T09:44:57.199Z"
  },
  "2/9": {
    "precinct": "2/9",
    "lat": 40.188137,
    "lng": 44.573998,
    "station": "«Երևանի Գ. Բաղյանի անվան հ.141 հիմնական դպրոց» ՊՈԱԿ, Գյուլիքեխվյան 27",
    "marz": "Երևան",
    "community": "Նոր Նորք",
    "source": "elections.am/AccessibilityMap",
    "fetchedAt": "2026-06-02T09:44:57.199Z"
  },
  "2/10": {
    "precinct": "2/10",
    "lat": 40.187094,
    "lng": 44.595912,
    "station": "Հ.110 մսուր-մանկապարտեզ, Ջրվեժ, Մայակ թաղ. 6",
    "marz": "Երևան",
    "community": "Նոր Նորք",
    "source": "elections.am/AccessibilityMap",
    "fetchedAt": "2026-06-02T09:44:57.199Z"
  },
  "2/11": {
    "precinct": "2/11",
    "lat": 40.185813,
    "lng": 44.59589,
    "station": "«Երևանի հ.187 միջնակարգ դպրոց» ՊՈԱԿ, Ջրվեժ, Մայակ թաղ. 30/1",
    "marz": "Երևան",
    "community": "Նոր Նորք",
    "source": "elections.am/AccessibilityMap",
    "fetchedAt": "2026-06-02T09:44:57.199Z"
  },
  "2/12": {
    "precinct": "2/12",
    "lat": 40.185813,
    "lng": 44.59589,
    "station": "«Երևանի հ.187 միջնակարգ դպրոց» ՊՈԱԿ, Ջրվեժ, Մայակ թաղ. 30/1",
    "marz": "Երևան",
    "community": "Նոր Նորք",
    "source": "elections.am/AccessibilityMap",
    "fetchedAt": "2026-06-02T09:44:57.199Z"
  },
  "2/13": {
    "precinct": "2/13",
    "lat": 40.185827,
    "lng": 44.566852,
    "station": "Հ.111 մսուր-մանկապարտեզ, Մառի 1/2",
    "marz": "Երևան",
    "community": "Նոր Նորք",
    "source": "elections.am/AccessibilityMap",
    "fetchedAt": "2026-06-02T09:44:57.199Z"
  },
  "2/14": {
    "precinct": "2/14",
    "lat": 40.185019,
    "lng": 44.56685,
    "station": "«Երևանի Ա. Միկոյանի անվան հ.166 հիմնական դպրոց» ՊՈԱԿ, Մառի 8",
    "marz": "Երևան",
    "community": "Նոր Նորք",
    "source": "elections.am/AccessibilityMap",
    "fetchedAt": "2026-06-02T09:44:57.199Z"
  },
  "2/15": {
    "precinct": "2/15",
    "lat": 40.183725,
    "lng": 44.569844,
    "station": "Հ.112 մսուր-մանկապարտեզ, Մառի 38/3",
    "marz": "Երևան",
    "community": "Նոր Նորք",
    "source": "elections.am/AccessibilityMap",
    "fetchedAt": "2026-06-02T09:44:57.199Z"
  },
  "2/16": {
    "precinct": "2/16",
    "lat": 40.184064,
    "lng": 44.568508,
    "station": "Ճարտարապետության և շինարարության պետական քոլեջ, Մառի 17/1",
    "marz": "Երևան",
    "community": "Նոր Նորք",
    "source": "elections.am/AccessibilityMap",
    "fetchedAt": "2026-06-02T09:44:57.199Z"
  },
  "2/17": {
    "precinct": "2/17",
    "lat": 40.180329,
    "lng": 44.56742,
    "station": "Հ.113  մսուր-մանկապարտեզ, Մ. Գալշոյան 62",
    "marz": "Երևան",
    "community": "Նոր Նորք",
    "source": "elections.am/AccessibilityMap",
    "fetchedAt": "2026-06-02T09:44:57.199Z"
  },
  "2/18": {
    "precinct": "2/18",
    "lat": 40.182455,
    "lng": 44.580256,
    "station": "Ա. Շիրակացու անվան  ճեմարան Մ. Գալշոյան 15",
    "marz": "Երևան",
    "community": "Նոր Նորք",
    "source": "elections.am/AccessibilityMap",
    "fetchedAt": "2026-06-02T09:44:57.199Z"
  },
  "2/19": {
    "precinct": "2/19",
    "lat": 40.181165,
    "lng": 44.567828,
    "station": "«Երևանի հ.159 ավագ դպրոց» ՊՈԱԿ, Մ. Գալշոյան փ.",
    "marz": "Երևան",
    "community": "Նոր Նորք",
    "source": "elections.am/AccessibilityMap",
    "fetchedAt": "2026-06-02T09:44:57.199Z"
  },
  "2/20": {
    "precinct": "2/20",
    "lat": 40.187723,
    "lng": 44.562292,
    "station": "Հ.114  մսուր-մանկապարտեզ, Շոպրոնի 6",
    "marz": "Երևան",
    "community": "Նոր Նորք",
    "source": "elections.am/AccessibilityMap",
    "fetchedAt": "2026-06-02T09:44:57.199Z"
  },
  "2/21": {
    "precinct": "2/21",
    "lat": 40.187851,
    "lng": 44.557409,
    "station": "«Երևանի Գ. Գուրզադյանի անվան հ.163 հիմնական դպրոց» ՊՈԱԿ, Գյուրջյան 13",
    "marz": "Երևան",
    "community": "Նոր Նորք",
    "source": "elections.am/AccessibilityMap",
    "fetchedAt": "2026-06-02T09:44:57.199Z"
  },
  "2/22": {
    "precinct": "2/22",
    "lat": 40.187851,
    "lng": 44.557409,
    "station": "«Երևանի Գ. Գուրզադյանի անվան հ.163 հիմնական դպրոց» ՊՈԱԿ, Գյուրջյան 13",
    "marz": "Երևան",
    "community": "Նոր Նորք",
    "source": "elections.am/AccessibilityMap",
    "fetchedAt": "2026-06-02T09:44:57.199Z"
  },
  "2/23": {
    "precinct": "2/23",
    "lat": 40.188681,
    "lng": 44.560299,
    "station": "Մշակույթի կենտրոն, Լյուքսեմբուրգի 2-րդ նրբ., 6/9",
    "marz": "Երևան",
    "community": "Նոր Նորք",
    "source": "elections.am/AccessibilityMap",
    "fetchedAt": "2026-06-02T09:44:57.199Z"
  },
  "2/24": {
    "precinct": "2/24",
    "lat": 40.177441,
    "lng": 44.562384,
    "station": "«Երևանի Յ. Լեփսիուսի անվան հ.88 հիմնական դպրոց» ՊՈԱԿ, Կարախանյան 11",
    "marz": "Երևան",
    "community": "Նոր Նորք",
    "source": "elections.am/AccessibilityMap",
    "fetchedAt": "2026-06-02T09:44:57.199Z"
  },
  "2/25": {
    "precinct": "2/25",
    "lat": 40.177441,
    "lng": 44.562384,
    "station": "«Երևանի Յ. Լեփսիուսի անվան հ.88 հիմնական դպրոց» ՊՈԱԿ, Կարախանյան 11",
    "marz": "Երևան",
    "community": "Նոր Նորք",
    "source": "elections.am/AccessibilityMap",
    "fetchedAt": "2026-06-02T09:44:57.199Z"
  },
  "2/26": {
    "precinct": "2/26",
    "lat": 40.177056,
    "lng": 44.561278,
    "station": "Նախկին հ.22 մանկապարտեզ, Հ.Ավետիսյան 5/1",
    "marz": "Երևան",
    "community": "Նոր Նորք",
    "source": "elections.am/AccessibilityMap",
    "fetchedAt": "2026-06-02T09:44:57.199Z"
  },
  "2/27": {
    "precinct": "2/27",
    "lat": 40.176836,
    "lng": 44.565617,
    "station": "Հ. 117 մսուր-մանկապարտեզ, Կարախանյան 21",
    "marz": "Երևան",
    "community": "Նոր Նորք",
    "source": "elections.am/AccessibilityMap",
    "fetchedAt": "2026-06-02T09:44:57.199Z"
  },
  "2/28": {
    "precinct": "2/28",
    "lat": 40.175257,
    "lng": 44.573492,
    "station": "Հ.118 մսուր-մանկապարտեզ, Վիլնյուսի 121",
    "marz": "Երևան",
    "community": "Նոր Նորք",
    "source": "elections.am/AccessibilityMap",
    "fetchedAt": "2026-06-02T09:44:57.199Z"
  },
  "2/29": {
    "precinct": "2/29",
    "lat": 40.175257,
    "lng": 44.573492,
    "station": "Հ.118 մսուր-մանկապարտեզ, Վիլնյուսի 121",
    "marz": "Երևան",
    "community": "Նոր Նորք",
    "source": "elections.am/AccessibilityMap",
    "fetchedAt": "2026-06-02T09:44:57.199Z"
  },
  "2/30": {
    "precinct": "2/30",
    "lat": 40.174118,
    "lng": 44.572611,
    "station": "«Երևանի հ.186 հիմնական դպրոց» ՊՈԱԿ, Մինսկի 95",
    "marz": "Երևան",
    "community": "Նոր Նորք",
    "source": "elections.am/AccessibilityMap",
    "fetchedAt": "2026-06-02T09:44:57.199Z"
  },
  "2/31": {
    "precinct": "2/31",
    "lat": 40.174118,
    "lng": 44.572611,
    "station": "«Երևանի հ.186 հիմնական դպրոց» ՊՈԱԿ, Մինսկի 95",
    "marz": "Երևան",
    "community": "Նոր Նորք",
    "source": "elections.am/AccessibilityMap",
    "fetchedAt": "2026-06-02T09:44:57.199Z"
  },
  "2/32": {
    "precinct": "2/32",
    "lat": 40.171778,
    "lng": 44.562734,
    "station": "Հ.119 մսուր-մանկապարտեզ, Վիլնյուսի 43/2",
    "marz": "Երևան",
    "community": "Նոր Նորք",
    "source": "elections.am/AccessibilityMap",
    "fetchedAt": "2026-06-02T09:44:57.199Z"
  },
  "2/33": {
    "precinct": "2/33",
    "lat": 40.171686,
    "lng": 44.565039,
    "station": "Հ.120 մանկապարտեզ, Վիլնյուսի 27/1",
    "marz": "Երևան",
    "community": "Նոր Նորք",
    "source": "elections.am/AccessibilityMap",
    "fetchedAt": "2026-06-02T09:44:57.199Z"
  },
  "2/34": {
    "precinct": "2/34",
    "lat": 40.171192,
    "lng": 44.561153,
    "station": "«Երևանի հ.197 հիմնական դպրոց» ՊՈԱԿ, Վիլնյուսի 59/5",
    "marz": "Երևան",
    "community": "Նոր Նորք",
    "source": "elections.am/AccessibilityMap",
    "fetchedAt": "2026-06-02T09:44:57.199Z"
  },
  "2/35": {
    "precinct": "2/35",
    "lat": 40.171192,
    "lng": 44.561153,
    "station": "«Երևանի հ.197 հիմնական դպրոց» ՊՈԱԿ, Վիլնյուսի 59/5",
    "marz": "Երևան",
    "community": "Նոր Նորք",
    "source": "elections.am/AccessibilityMap",
    "fetchedAt": "2026-06-02T09:44:57.199Z"
  },
  "2/36": {
    "precinct": "2/36",
    "lat": 40.172167,
    "lng": 44.569599,
    "station": "«Երևանի հ.198 ավագ դպրոց» ՊՈԱԿ, Վիլնյուսի 13/1",
    "marz": "Երևան",
    "community": "Նոր Նորք",
    "source": "elections.am/AccessibilityMap",
    "fetchedAt": "2026-06-02T09:44:57.199Z"
  },
  "2/37": {
    "precinct": "2/37",
    "lat": 40.172167,
    "lng": 44.569599,
    "station": "«Երևանի հ.198 ավագ դպրոց» ՊՈԱԿ, Վիլնյուսի 13/1",
    "marz": "Երևան",
    "community": "Նոր Նորք",
    "source": "elections.am/AccessibilityMap",
    "fetchedAt": "2026-06-02T09:44:57.199Z"
  },
  "2/38": {
    "precinct": "2/38",
    "lat": 40.209478,
    "lng": 44.569565,
    "station": "«Երևանի Հ. Մաթևոսյանի անվան հ.96 հիմնական դպրոց» ՊՈԱԿ, Դ. Մալյան 24",
    "marz": "Երևան",
    "community": "Նոր Նորք",
    "source": "elections.am/AccessibilityMap",
    "fetchedAt": "2026-06-02T09:44:57.199Z"
  },
  "2/39": {
    "precinct": "2/39",
    "lat": 40.203396,
    "lng": 44.5674,
    "station": "«Երևանի Ն. Սաֆարյանի անվան հ.164 հիմնական դպրոց Թոթովենցի 7",
    "marz": "Երևան",
    "community": "Նոր Նորք",
    "source": "elections.am/AccessibilityMap",
    "fetchedAt": "2026-06-02T09:44:57.199Z"
  },
  "2/40": {
    "precinct": "2/40",
    "lat": 40.203396,
    "lng": 44.5674,
    "station": "«Երևանի Ն. Սաֆարյանի անվան հ.164 հիմնական դպրոց Թոթովենցի 7",
    "marz": "Երևան",
    "community": "Նոր Նորք",
    "source": "elections.am/AccessibilityMap",
    "fetchedAt": "2026-06-02T09:44:57.199Z"
  },
  "2/41": {
    "precinct": "2/41",
    "lat": 40.204053,
    "lng": 44.568156,
    "station": "Հ.103 մանկապարտեզ, Թոթովենցի 3",
    "marz": "Երևան",
    "community": "Նոր Նորք",
    "source": "elections.am/AccessibilityMap",
    "fetchedAt": "2026-06-02T09:44:57.199Z"
  },
  "2/42": {
    "precinct": "2/42",
    "lat": 40.203594,
    "lng": 44.566312,
    "station": "Հ.104 մ/մանկապարտեզ, Գայի պող. 5/1",
    "marz": "Երևան",
    "community": "Նոր Նորք",
    "source": "elections.am/AccessibilityMap",
    "fetchedAt": "2026-06-02T09:44:57.199Z"
  },
  "2/43": {
    "precinct": "2/43",
    "lat": 40.203066,
    "lng": 44.57158,
    "station": "«Երևանի Գ. Ստեփանյանի անվան հ.135 հիմնական դպրոց» ՊՈԱԿ, Ն. Ստեփանյան 5",
    "marz": "Երևան",
    "community": "Նոր Նորք",
    "source": "elections.am/AccessibilityMap",
    "fetchedAt": "2026-06-02T09:44:57.199Z"
  },
  "2/44": {
    "precinct": "2/44",
    "lat": 40.203061,
    "lng": 44.571591,
    "station": "«Երևանի Գ. Ստեփանյանի անվան հ.135 հիմնական դպրոց» ՊՈԱԿ, Ն. Ստեփանյան 5",
    "marz": "Երևան",
    "community": "Նոր Նորք",
    "source": "elections.am/AccessibilityMap",
    "fetchedAt": "2026-06-02T09:44:57.199Z"
  },
  "2/45": {
    "precinct": "2/45",
    "lat": 40.203405,
    "lng": 44.569653,
    "station": "Հ.101 մսուր-մանկապարտեզ, Թոթովենցի 3/5",
    "marz": "Երևան",
    "community": "Նոր Նորք",
    "source": "elections.am/AccessibilityMap",
    "fetchedAt": "2026-06-02T09:44:57.199Z"
  },
  "2/46": {
    "precinct": "2/46",
    "lat": 40.200311,
    "lng": 44.574966,
    "station": "Երևանի հենաշարժական համակարգի խախտումներ ունեցող երեխաների հ.17 հատուկ դպրոց, Մոլդովական 41",
    "marz": "Երևան",
    "community": "Նոր Նորք",
    "source": "elections.am/AccessibilityMap",
    "fetchedAt": "2026-06-02T09:44:57.199Z"
  },
  "2/47": {
    "precinct": "2/47",
    "lat": 40.200311,
    "lng": 44.574966,
    "station": "Երևանի հենաշարժական համակարգի խախտումներ ունեցող երեխաների հ.17 հատուկ դպրոց, Մոլդովական 41",
    "marz": "Երևան",
    "community": "Նոր Նորք",
    "source": "elections.am/AccessibilityMap",
    "fetchedAt": "2026-06-02T09:44:57.199Z"
  },
  "2/48": {
    "precinct": "2/48",
    "lat": 40.205639,
    "lng": 44.573208,
    "station": "«Երևանի Գ. Ադդարյանի անվան հ.133 հիմնական դպրոց» ՊՈԱԿ, Մոլդովական 35",
    "marz": "Երևան",
    "community": "Նոր Նորք",
    "source": "elections.am/AccessibilityMap",
    "fetchedAt": "2026-06-02T09:44:57.199Z"
  },
  "2/49": {
    "precinct": "2/49",
    "lat": 40.203706,
    "lng": 44.574152,
    "station": "Տարածաշրջանային հ.2 պետ. քոլեջ,  Մոլդովական 37Ա",
    "marz": "Երևան",
    "community": "Նոր Նորք",
    "source": "elections.am/AccessibilityMap",
    "fetchedAt": "2026-06-02T09:44:57.199Z"
  },
  "2/50": {
    "precinct": "2/50",
    "lat": 40.203706,
    "lng": 44.574152,
    "station": "Տարածաշրջանային հ.2 պետ. քոլեջ,  Մոլդովական 37Ա",
    "marz": "Երևան",
    "community": "Նոր Նորք",
    "source": "elections.am/AccessibilityMap",
    "fetchedAt": "2026-06-02T09:44:57.199Z"
  },
  "2/51": {
    "precinct": "2/51",
    "lat": 40.199621,
    "lng": 44.5589,
    "station": "«Երևանի հ.134 հիմնական դպրոց» ՊՈԱԿ, Նանսենի 14",
    "marz": "Երևան",
    "community": "Նոր Նորք",
    "source": "elections.am/AccessibilityMap",
    "fetchedAt": "2026-06-02T09:44:57.199Z"
  },
  "2/52": {
    "precinct": "2/52",
    "lat": 40.198349,
    "lng": 44.556259,
    "station": "Հ.100 մսուր-մանկապարտեզ, Նանսենի 22",
    "marz": "Երևան",
    "community": "Նոր Նորք",
    "source": "elections.am/AccessibilityMap",
    "fetchedAt": "2026-06-02T09:44:57.199Z"
  },
  "2/53": {
    "precinct": "2/53",
    "lat": 40.196902,
    "lng": 44.562353,
    "station": "Հ.98 մսուր-մանկապարտեզ, Սաֆարյան 8",
    "marz": "Երևան",
    "community": "Նոր Նորք",
    "source": "elections.am/AccessibilityMap",
    "fetchedAt": "2026-06-02T09:44:57.199Z"
  },
  "2/54": {
    "precinct": "2/54",
    "lat": 40.197717,
    "lng": 44.562176,
    "station": "«Երևանի «Վարդանանց ասպետներ» հ.106 հիմնական դպրոց» ՊՈԱԿ, Նանսենի 11",
    "marz": "Երևան",
    "community": "Նոր Նորք",
    "source": "elections.am/AccessibilityMap",
    "fetchedAt": "2026-06-02T09:44:57.199Z"
  },
  "2/55": {
    "precinct": "2/55",
    "lat": 40.197717,
    "lng": 44.562176,
    "station": "«Երևանի «Վարդանանց ասպետներ» հ.106 հիմնական դպրոց» ՊՈԱԿ, Նանսենի 11",
    "marz": "Երևան",
    "community": "Նոր Նորք",
    "source": "elections.am/AccessibilityMap",
    "fetchedAt": "2026-06-02T09:44:57.199Z"
  },
  "2/56": {
    "precinct": "2/56",
    "lat": 40.200651,
    "lng": 44.562499,
    "station": "«Երևանի Թ. Կրպեյանի անվան հ.62 ավագ դպրոց» ՊՈԱԿ, Նանսենի 6",
    "marz": "Երևան",
    "community": "Նոր Նորք",
    "source": "elections.am/AccessibilityMap",
    "fetchedAt": "2026-06-02T09:44:57.199Z"
  },
  "2/57": {
    "precinct": "2/57",
    "lat": 40.200651,
    "lng": 44.562499,
    "station": "«Երևանի Թ. Կրպեյանի անվան հ.62 ավագ դպրոց» ՊՈԱԿ, Նանսենի 6",
    "marz": "Երևան",
    "community": "Նոր Նորք",
    "source": "elections.am/AccessibilityMap",
    "fetchedAt": "2026-06-02T09:44:57.199Z"
  },
  "3/1": {
    "precinct": "3/1",
    "lat": 40.229895,
    "lng": 44.550275,
    "station": "161 մանկապարտեզ  Զ․ Սարկավագի 145ա",
    "marz": "Երևան",
    "community": "Քանաքեռ-Զեյթուն",
    "source": "elections.am/AccessibilityMap",
    "fetchedAt": "2026-06-02T09:44:57.199Z"
  },
  "3/2": {
    "precinct": "3/2",
    "lat": 40.229895,
    "lng": 44.550275,
    "station": "161 մանկապարտեզ  Զ․ Սարկավագի 145ա",
    "marz": "Երևան",
    "community": "Քանաքեռ-Զեյթուն",
    "source": "elections.am/AccessibilityMap",
    "fetchedAt": "2026-06-02T09:44:57.199Z"
  },
  "3/3": {
    "precinct": "3/3",
    "lat": 40.22677,
    "lng": 44.545797,
    "station": "Խ․Աբովյանի անվ․ հ․ 84 հիմնական դպրոց Մ․ Սարգսյան 1/5 (Քանաքեռ 14փ․)",
    "marz": "Երևան",
    "community": "Քանաքեռ-Զեյթուն",
    "source": "elections.am/AccessibilityMap",
    "fetchedAt": "2026-06-02T09:44:57.199Z"
  },
  "3/4": {
    "precinct": "3/4",
    "lat": 40.216324,
    "lng": 44.535247,
    "station": "157 մանկապարտեզ Զ․Սարկավագի 14/3",
    "marz": "Երևան",
    "community": "Քանաքեռ-Զեյթուն",
    "source": "elections.am/AccessibilityMap",
    "fetchedAt": "2026-06-02T09:44:57.199Z"
  },
  "3/5": {
    "precinct": "3/5",
    "lat": 40.222529,
    "lng": 44.536822,
    "station": "Ս․Շահմուրադյանի անվ․ հ․85 հիմնական դպրոց  Ծարավ աղբյուր 21Ա",
    "marz": "Երևան",
    "community": "Քանաքեռ-Զեյթուն",
    "source": "elections.am/AccessibilityMap",
    "fetchedAt": "2026-06-02T09:44:57.199Z"
  },
  "3/6": {
    "precinct": "3/6",
    "lat": 40.220901,
    "lng": 44.540685,
    "station": "Հ․3 տարածքային մանկավարժահոգեբանական աջակցման կենտրոն  Ծարավ աղբյուր 14",
    "marz": "Երևան",
    "community": "Քանաքեռ-Զեյթուն",
    "source": "elections.am/AccessibilityMap",
    "fetchedAt": "2026-06-02T09:44:57.199Z"
  },
  "3/7": {
    "precinct": "3/7",
    "lat": 40.217049,
    "lng": 44.53517,
    "station": "Ա․Տեր-Ղևոնդյանի անվ․ հ․1 երաժշտական դպրոց  Զ․Սարկավագի 48 2-րդ հարկ",
    "marz": "Երևան",
    "community": "Քանաքեռ-Զեյթուն",
    "source": "elections.am/AccessibilityMap",
    "fetchedAt": "2026-06-02T09:44:57.199Z"
  },
  "3/8": {
    "precinct": "3/8",
    "lat": 40.217001,
    "lng": 44.536291,
    "station": "159 մանկապարտեզ  Է․Հասրաթյան 17",
    "marz": "Երևան",
    "community": "Քանաքեռ-Զեյթուն",
    "source": "elections.am/AccessibilityMap",
    "fetchedAt": "2026-06-02T09:44:57.199Z"
  },
  "3/9": {
    "precinct": "3/9",
    "lat": 40.210283,
    "lng": 44.539508,
    "station": "160 մանկապարտեզ  Է․Հասրաթյան փ․ 5",
    "marz": "Երևան",
    "community": "Քանաքեռ-Զեյթուն",
    "source": "elections.am/AccessibilityMap",
    "fetchedAt": "2026-06-02T09:44:57.199Z"
  },
  "3/10": {
    "precinct": "3/10",
    "lat": 40.207072,
    "lng": 44.538231,
    "station": "Լ․Արիսյանի անվ․ հ․127 ավագ դպրոց  Պ․Սևակ 11",
    "marz": "Երևան",
    "community": "Քանաքեռ-Զեյթուն",
    "source": "elections.am/AccessibilityMap",
    "fetchedAt": "2026-06-02T09:44:57.199Z"
  },
  "3/11": {
    "precinct": "3/11",
    "lat": 40.207095,
    "lng": 44.54201,
    "station": "156 մանկապարտեզ  Մ․Ավետիսյան 2-րդ փ․4/2",
    "marz": "Երևան",
    "community": "Քանաքեռ-Զեյթուն",
    "source": "elections.am/AccessibilityMap",
    "fetchedAt": "2026-06-02T09:44:57.199Z"
  },
  "3/12": {
    "precinct": "3/12",
    "lat": 40.205248,
    "lng": 44.543834,
    "station": "149 մանկապարտեզ  Դրոյի 19 ",
    "marz": "Երևան",
    "community": "Քանաքեռ-Զեյթուն",
    "source": "elections.am/AccessibilityMap",
    "fetchedAt": "2026-06-02T09:44:57.199Z"
  },
  "3/13": {
    "precinct": "3/13",
    "lat": 40.205868,
    "lng": 44.548734,
    "station": "Հ․Դինքի անվ․ հ․44 հիմանական դպրոց  Մ․Ավետիսյան 89 ",
    "marz": "Երևան",
    "community": "Քանաքեռ-Զեյթուն",
    "source": "elections.am/AccessibilityMap",
    "fetchedAt": "2026-06-02T09:44:57.199Z"
  },
  "3/14": {
    "precinct": "3/14",
    "lat": 40.208527,
    "lng": 44.545116,
    "station": "Հ․136 հիմնական դպրոց  Լեփսիուսի 6",
    "marz": "Երևան",
    "community": "Քանաքեռ-Զեյթուն",
    "source": "elections.am/AccessibilityMap",
    "fetchedAt": "2026-06-02T09:44:57.199Z"
  },
  "3/15": {
    "precinct": "3/15",
    "lat": 40.209447,
    "lng": 44.548675,
    "station": "153 մանկապարտեզ  Լեփսիուսի 6",
    "marz": "Երևան",
    "community": "Քանաքեռ-Զեյթուն",
    "source": "elections.am/AccessibilityMap",
    "fetchedAt": "2026-06-02T09:44:57.199Z"
  },
  "3/16": {
    "precinct": "3/16",
    "lat": 40.20442,
    "lng": 44.547096,
    "station": "162 մանկապարտեզ  Մ․Ավետիսյան  20փ 4",
    "marz": "Երևան",
    "community": "Քանաքեռ-Զեյթուն",
    "source": "elections.am/AccessibilityMap",
    "fetchedAt": "2026-06-02T09:44:57.199Z"
  },
  "3/17": {
    "precinct": "3/17",
    "lat": 40.202274,
    "lng": 44.542865,
    "station": "158 մանկապարտեզ  Դրոյի 16",
    "marz": "Երևան",
    "community": "Քանաքեռ-Զեյթուն",
    "source": "elections.am/AccessibilityMap",
    "fetchedAt": "2026-06-02T09:44:57.199Z"
  },
  "3/18": {
    "precinct": "3/18",
    "lat": 40.201956,
    "lng": 44.546816,
    "station": "Ս․Բյուրատի անվ․ հ․125 հիմնական դպրոց  Պ․Սևակ 89",
    "marz": "Երևան",
    "community": "Քանաքեռ-Զեյթուն",
    "source": "elections.am/AccessibilityMap",
    "fetchedAt": "2026-06-02T09:44:57.199Z"
  },
  "3/19": {
    "precinct": "3/19",
    "lat": 40.201956,
    "lng": 44.546816,
    "station": "Ս․Բյուրատի անվ․ հ․125 հիմնական դպրոց  Պ․Սևակ 89",
    "marz": "Երևան",
    "community": "Քանաքեռ-Զեյթուն",
    "source": "elections.am/AccessibilityMap",
    "fetchedAt": "2026-06-02T09:44:57.199Z"
  },
  "3/20": {
    "precinct": "3/20",
    "lat": 40.200511,
    "lng": 44.545614,
    "station": "151 մանկապարտեզ  Նորաշխարհյան 9 ",
    "marz": "Երևան",
    "community": "Քանաքեռ-Զեյթուն",
    "source": "elections.am/AccessibilityMap",
    "fetchedAt": "2026-06-02T09:44:57.199Z"
  },
  "3/21": {
    "precinct": "3/21",
    "lat": 40.200194,
    "lng": 44.540232,
    "station": "Ղ․Սարյանի անվ․հ․1 արվեստի դպրոց  Դրոյի 4ա ",
    "marz": "Երևան",
    "community": "Քանաքեռ-Զեյթուն",
    "source": "elections.am/AccessibilityMap",
    "fetchedAt": "2026-06-02T09:44:57.199Z"
  },
  "3/22": {
    "precinct": "3/22",
    "lat": 40.201923,
    "lng": 44.538943,
    "station": "Մ․Մանուշյանի անվ․ հ․48 հիմնական դպրոց  Դրոյի 11",
    "marz": "Երևան",
    "community": "Քանաքեռ-Զեյթուն",
    "source": "elections.am/AccessibilityMap",
    "fetchedAt": "2026-06-02T09:44:57.199Z"
  },
  "3/23": {
    "precinct": "3/23",
    "lat": 40.204626,
    "lng": 44.534705,
    "station": "Ռ․Աբաջյանի անվ․ հ․147 հիմնական դպրոց  Կ․Ուլնեցու 1",
    "marz": "Երևան",
    "community": "Քանաքեռ-Զեյթուն",
    "source": "elections.am/AccessibilityMap",
    "fetchedAt": "2026-06-02T09:44:57.199Z"
  },
  "3/24": {
    "precinct": "3/24",
    "lat": 40.206505,
    "lng": 44.529612,
    "station": "Երևանի զարդարվեստի պետական արհեստագործական ուսումնարան Հ․Ներսիսյան 3",
    "marz": "Երևան",
    "community": "Քանաքեռ-Զեյթուն",
    "source": "elections.am/AccessibilityMap",
    "fetchedAt": "2026-06-02T09:44:57.199Z"
  },
  "3/25": {
    "precinct": "3/25",
    "lat": 40.205899,
    "lng": 44.527795,
    "station": "155 մանկապարտեզ  Վ․Վահյան 1",
    "marz": "Երևան",
    "community": "Քանաքեռ-Զեյթուն",
    "source": "elections.am/AccessibilityMap",
    "fetchedAt": "2026-06-02T09:44:57.199Z"
  },
  "3/26": {
    "precinct": "3/26",
    "lat": 40.202318,
    "lng": 44.527583,
    "station": "Հ․Պարոնյանի անվ․հ․ 59 հիմնական դպրոց  Վարշավյան 45",
    "marz": "Երևան",
    "community": "Քանաքեռ-Զեյթուն",
    "source": "elections.am/AccessibilityMap",
    "fetchedAt": "2026-06-02T09:44:57.199Z"
  },
  "3/27": {
    "precinct": "3/27",
    "lat": 40.200872,
    "lng": 44.523837,
    "station": "Երևանի պետական հումանիտար-տեխնիկական քոլեջ  Ա․Տիգրանյան 21 ",
    "marz": "Երևան",
    "community": "Քանաքեռ-Զեյթուն",
    "source": "elections.am/AccessibilityMap",
    "fetchedAt": "2026-06-02T09:44:57.199Z"
  },
  "3/28": {
    "precinct": "3/28",
    "lat": 40.199804,
    "lng": 44.521461,
    "station": "152 մանկապարտեզ  Ազատության 4ա",
    "marz": "Երևան",
    "community": "Քանաքեռ-Զեյթուն",
    "source": "elections.am/AccessibilityMap",
    "fetchedAt": "2026-06-02T09:44:57.199Z"
  },
  "3/29": {
    "precinct": "3/29",
    "lat": 40.201887,
    "lng": 44.546121,
    "station": "Տնտեսագիտական համալսարանի ինֆորմատիկայի և վիճակագրության ֆակուլտետ  Պ․Սևակ 77",
    "marz": "Երևան",
    "community": "Քանաքեռ-Զեյթուն",
    "source": "elections.am/AccessibilityMap",
    "fetchedAt": "2026-06-02T09:44:57.199Z"
  },
  "3/30": {
    "precinct": "3/30",
    "lat": 40.219308,
    "lng": 44.540386,
    "station": "Ա․Տեր-Ղևոնդյանի անվ․ հ․1 երաժշտական դպրոց  Զ․Սարկավագի 48 1-ին հարկ",
    "marz": "Երևան",
    "community": "Քանաքեռ-Զեյթուն",
    "source": "elections.am/AccessibilityMap",
    "fetchedAt": "2026-06-02T09:44:57.199Z"
  },
  "3/31": {
    "precinct": "3/31",
    "lat": 40.220996,
    "lng": 44.538223,
    "station": "Կ․Զարյանի անվ․ հ․ 117 հիմնական դպրոց  Ֆանարջյան 15",
    "marz": "Երևան",
    "community": "Քանաքեռ-Զեյթուն",
    "source": "elections.am/AccessibilityMap",
    "fetchedAt": "2026-06-02T09:44:57.200Z"
  },
  "3/32": {
    "precinct": "3/32",
    "lat": 40.202415,
    "lng": 44.542882,
    "station": "Կենտրոնացված գրադարանային համալիր ՀՈԱԿ  Դրոյի 16ա",
    "marz": "Երևան",
    "community": "Քանաքեռ-Զեյթուն",
    "source": "elections.am/AccessibilityMap",
    "fetchedAt": "2026-06-02T09:44:57.200Z"
  },
  "4/1": {
    "precinct": "4/1",
    "lat": 40.2156118,
    "lng": 44.52503995,
    "station": "«Երևանի Վ.Դավթյանի անվան հ.37 հիմնական դպրոց» ՊՈԱԿ,  Քանաքեռ ՀԷԿ Բանավան 14",
    "marz": "Երևան",
    "community": "Արաբկիր",
    "source": "elections.am/AccessibilityMap",
    "fetchedAt": "2026-06-02T09:44:57.200Z"
  },
  "4/2": {
    "precinct": "4/2",
    "lat": 40.2156118,
    "lng": 44.52503995,
    "station": "«Երևանի Վ.Դավթյանի անվան հ.37 հիմնական դպրոց» ՊՈԱԿ,  Քանաքեռ ՀԷԿ Բանավան 14",
    "marz": "Երևան",
    "community": "Արաբկիր",
    "source": "elections.am/AccessibilityMap",
    "fetchedAt": "2026-06-02T09:44:57.200Z"
  },
  "4/3": {
    "precinct": "4/3",
    "lat": 40.210596,
    "lng": 44.526125,
    "station": "«Երևանի Ռ. Միրոյանի անվան հ.77 հիմնական դպրոց» ՊՈԱԿ, Ադոնցի 11",
    "marz": "Երևան",
    "community": "Արաբկիր",
    "source": "elections.am/AccessibilityMap",
    "fetchedAt": "2026-06-02T09:44:57.200Z"
  },
  "4/4": {
    "precinct": "4/4",
    "lat": 40.223778,
    "lng": 44.528705,
    "station": "Հ.6 գրադարան, Քանաքեռ ՀԷԿ 4/1",
    "marz": "Երևան",
    "community": "Արաբկիր",
    "source": "elections.am/AccessibilityMap",
    "fetchedAt": "2026-06-02T09:44:57.200Z"
  },
  "4/5": {
    "precinct": "4/5",
    "lat": 40.207208,
    "lng": 44.523875,
    "station": "Հ.25 մանկապարտեզ, Շիրվանզադեի 5/1",
    "marz": "Երևան",
    "community": "Արաբկիր",
    "source": "elections.am/AccessibilityMap",
    "fetchedAt": "2026-06-02T09:44:57.200Z"
  },
  "4/6": {
    "precinct": "4/6",
    "lat": 40.209421,
    "lng": 44.523111,
    "station": "Կ.Սարաջյանի անվան երաժշտ. դպրոց, Մամիկոնյանց 34Բ",
    "marz": "Երևան",
    "community": "Արաբկիր",
    "source": "elections.am/AccessibilityMap",
    "fetchedAt": "2026-06-02T09:44:57.200Z"
  },
  "4/7": {
    "precinct": "4/7",
    "lat": 40.210706,
    "lng": 44.521438,
    "station": "«Երևանի Մ. Քաջունու անվան հ.54 ավագ դպրոց» ՊՈԱԿ,  Ն. Տիգրանյան 12",
    "marz": "Երևան",
    "community": "Արաբկիր",
    "source": "elections.am/AccessibilityMap",
    "fetchedAt": "2026-06-02T09:44:57.200Z"
  },
  "4/8": {
    "precinct": "4/8",
    "lat": 40.21248539,
    "lng": 44.50548093,
    "station": "Երևանի պետական հումանիտար քոլեջ, Արղության 1",
    "marz": "Երևան",
    "community": "Արաբկիր",
    "source": "elections.am/AccessibilityMap",
    "fetchedAt": "2026-06-02T09:44:57.200Z"
  },
  "4/9": {
    "precinct": "4/9",
    "lat": 40.209218,
    "lng": 44.515235,
    "station": "«Երևանի Հ. Պողոսյանի անվան հ.82 հիմնական դպրոց» ՊՈԱԿ, Մամիկոնյանց 33",
    "marz": "Երևան",
    "community": "Արաբկիր",
    "source": "elections.am/AccessibilityMap",
    "fetchedAt": "2026-06-02T09:44:57.200Z"
  },
  "4/10": {
    "precinct": "4/10",
    "lat": 40.208208,
    "lng": 44.519973,
    "station": "Կույրերի մշակույթի տուն, Ն. Տիգրանյան 15",
    "marz": "Երևան",
    "community": "Արաբկիր",
    "source": "elections.am/AccessibilityMap",
    "fetchedAt": "2026-06-02T09:44:57.200Z"
  },
  "4/11": {
    "precinct": "4/11",
    "lat": 40.20467078,
    "lng": 44.51560417,
    "station": "«Երևանի Վ. Պետրոսյանի անվան հ.51 հիմնական դպրոց» ՊՈԱԿ, Ն. Զարյան 23",
    "marz": "Երևան",
    "community": "Արաբկիր",
    "source": "elections.am/AccessibilityMap",
    "fetchedAt": "2026-06-02T09:44:57.200Z"
  },
  "4/12": {
    "precinct": "4/12",
    "lat": 40.201136,
    "lng": 44.520983,
    "station": "«Երևանի Լև Տոլստոյի անվան հ.128 հիմնական դպրոց» ՊՈԱԿ, Ազատության 5",
    "marz": "Երևան",
    "community": "Արաբկիր",
    "source": "elections.am/AccessibilityMap",
    "fetchedAt": "2026-06-02T09:44:57.200Z"
  },
  "4/13": {
    "precinct": "4/13",
    "lat": 40.201121,
    "lng": 44.520991,
    "station": "«Երևանի Լև Տոլստոյի անվան հ.128 հիմնական դպրոց» ՊՈԱԿ, Ազատության 5",
    "marz": "Երևան",
    "community": "Արաբկիր",
    "source": "elections.am/AccessibilityMap",
    "fetchedAt": "2026-06-02T09:44:57.200Z"
  },
  "4/14": {
    "precinct": "4/14",
    "lat": 40.201103,
    "lng": 44.511588,
    "station": "«Երևանի Ռ. Սևակի անվան հ.151 հիմնական դպրոց» ՊՈԱԿ, Բաբայան 40",
    "marz": "Երևան",
    "community": "Արաբկիր",
    "source": "elections.am/AccessibilityMap",
    "fetchedAt": "2026-06-02T09:44:57.200Z"
  },
  "4/15": {
    "precinct": "4/15",
    "lat": 40.201103,
    "lng": 44.511588,
    "station": "«Երևանի Ռ. Սևակի անվան հ.151 հիմնական դպրոց» ՊՈԱԿ Բաբայան 40",
    "marz": "Երևան",
    "community": "Արաբկիր",
    "source": "elections.am/AccessibilityMap",
    "fetchedAt": "2026-06-02T09:44:57.200Z"
  },
  "4/16": {
    "precinct": "4/16",
    "lat": 40.204581,
    "lng": 44.511522,
    "station": "Երնորոգնախագիծ ինստիտուտ   Ն. Զարյան 22",
    "marz": "Երևան",
    "community": "Արաբկիր",
    "source": "elections.am/AccessibilityMap",
    "fetchedAt": "2026-06-02T09:44:57.200Z"
  },
  "4/17": {
    "precinct": "4/17",
    "lat": 40.20467078,
    "lng": 44.51560417,
    "station": "«Երևանի Վ. Պետրոսյանի անվան հ.51 հիմնական դպրոց» ՊՈԱԿ, Ն. Զարյան 23",
    "marz": "Երևան",
    "community": "Արաբկիր",
    "source": "elections.am/AccessibilityMap",
    "fetchedAt": "2026-06-02T09:44:57.200Z"
  },
  "4/18": {
    "precinct": "4/18",
    "lat": 40.207224,
    "lng": 44.509479,
    "station": "Երևանի Արաբկիրի համալիր մարզաձևերի մանկապատանեկան մարզադպրոց, Կոմիտասի 37",
    "marz": "Երևան",
    "community": "Արաբկիր",
    "source": "elections.am/AccessibilityMap",
    "fetchedAt": "2026-06-02T09:44:57.200Z"
  },
  "4/19": {
    "precinct": "4/19",
    "lat": 40.207712,
    "lng": 44.509222,
    "station": "«Երևանի Րաֆֆու անվան հ.36 հիմնական դպրոց» ՊՈԱԿ,   Կոմիտասի 37",
    "marz": "Երևան",
    "community": "Արաբկիր",
    "source": "elections.am/AccessibilityMap",
    "fetchedAt": "2026-06-02T09:44:57.200Z"
  },
  "4/20": {
    "precinct": "4/20",
    "lat": 40.207205,
    "lng": 44.504319,
    "station": "«Երևանի Ծ. Իսակովի անվան հ.132 հիմնական դպրոց» ՊՈԱԿ, Ա. Խաչատրյան 28",
    "marz": "Երևան",
    "community": "Արաբկիր",
    "source": "elections.am/AccessibilityMap",
    "fetchedAt": "2026-06-02T09:44:57.200Z"
  },
  "4/21": {
    "precinct": "4/21",
    "lat": 40.207365,
    "lng": 44.505939,
    "station": "Հ.33 մանկապարտեզ Ա. Խաչատրյան 28/1",
    "marz": "Երևան",
    "community": "Արաբկիր",
    "source": "elections.am/AccessibilityMap",
    "fetchedAt": "2026-06-02T09:44:57.200Z"
  },
  "4/22": {
    "precinct": "4/22",
    "lat": 40.205974,
    "lng": 44.505668,
    "station": "Հասարակական տարածք Կոմիտասի 29/2",
    "marz": "Երևան",
    "community": "Արաբկիր",
    "source": "elections.am/AccessibilityMap",
    "fetchedAt": "2026-06-02T09:44:57.200Z"
  },
  "4/23": {
    "precinct": "4/23",
    "lat": 40.203482,
    "lng": 44.501681,
    "station": "Հ.29 մանկապարտեզ   Կոմիտասի 30",
    "marz": "Երևան",
    "community": "Արաբկիր",
    "source": "elections.am/AccessibilityMap",
    "fetchedAt": "2026-06-02T09:44:57.200Z"
  },
  "4/24": {
    "precinct": "4/24",
    "lat": 40.203117,
    "lng": 44.50503,
    "station": "«Երևանի Գայի անվան հ.129 հիմնական դպրոց» ՊՈԱԿ,   Հր. Քոչարի 29",
    "marz": "Երևան",
    "community": "Արաբկիր",
    "source": "elections.am/AccessibilityMap",
    "fetchedAt": "2026-06-02T09:44:57.200Z"
  },
  "4/25": {
    "precinct": "4/25",
    "lat": 40.203215,
    "lng": 44.505017,
    "station": "«Երևանի Գայի անվան հ.129 հիմնական դպրոց» ՊՈԱԿ,   Հր. Քոչարի 29",
    "marz": "Երևան",
    "community": "Արաբկիր",
    "source": "elections.am/AccessibilityMap",
    "fetchedAt": "2026-06-02T09:44:57.200Z"
  },
  "4/26": {
    "precinct": "4/26",
    "lat": 40.199102,
    "lng": 44.507355,
    "station": "Հ.26 մանկապարտեզ Փափազյան 8",
    "marz": "Երևան",
    "community": "Արաբկիր",
    "source": "elections.am/AccessibilityMap",
    "fetchedAt": "2026-06-02T09:44:57.200Z"
  },
  "4/27": {
    "precinct": "4/27",
    "lat": 40.199102,
    "lng": 44.507355,
    "station": "Հ.26 մանկապարտեզ  Փափազյան 8",
    "marz": "Երևան",
    "community": "Արաբկիր",
    "source": "elections.am/AccessibilityMap",
    "fetchedAt": "2026-06-02T09:44:57.200Z"
  },
  "4/28": {
    "precinct": "4/28",
    "lat": 40.199102,
    "lng": 44.507355,
    "station": "Հ.26 մանկապարտեզ  Փափազյան 8",
    "marz": "Երևան",
    "community": "Արաբկիր",
    "source": "elections.am/AccessibilityMap",
    "fetchedAt": "2026-06-02T09:44:57.200Z"
  },
  "4/29": {
    "precinct": "4/29",
    "lat": 40.203215,
    "lng": 44.505017,
    "station": "«Երևանի Գայի անվան հ.129 հիմնական դպրոց» ՊՈԱԿ,   Հր. Քոչարի 29",
    "marz": "Երևան",
    "community": "Արաբկիր",
    "source": "elections.am/AccessibilityMap",
    "fetchedAt": "2026-06-02T09:44:57.200Z"
  },
  "4/30": {
    "precinct": "4/30",
    "lat": 40.199402,
    "lng": 44.50167,
    "station": "«Հայջրնախագիծ» ինստիտուտ  Վ. Վաղարշյան 12",
    "marz": "Երևան",
    "community": "Արաբկիր",
    "source": "elections.am/AccessibilityMap",
    "fetchedAt": "2026-06-02T09:44:57.200Z"
  },
  "4/31": {
    "precinct": "4/31",
    "lat": 40.196815,
    "lng": 44.500036,
    "station": "Հասարակական տարածք Համբարձումյան 8/1",
    "marz": "Երևան",
    "community": "Արաբկիր",
    "source": "elections.am/AccessibilityMap",
    "fetchedAt": "2026-06-02T09:44:57.200Z"
  },
  "4/32": {
    "precinct": "4/32",
    "lat": 40.192858,
    "lng": 44.500242,
    "station": "«Երևանի «Արգենտինյան Հանրապետություն» հ.76 հիմնական դպրոց» ՊՈԱԿ,  Մ. Բաղրամյան 52",
    "marz": "Երևան",
    "community": "Արաբկիր",
    "source": "elections.am/AccessibilityMap",
    "fetchedAt": "2026-06-02T09:44:57.200Z"
  },
  "4/33": {
    "precinct": "4/33",
    "lat": 40.192921,
    "lng": 44.49706,
    "station": "«Երևանի Հ. Օշականի անվան հ.172 հիմնական դպրոց» ՊՈԱԿ, Մ.Բաղրամյան 59Ա",
    "marz": "Երևան",
    "community": "Արաբկիր",
    "source": "elections.am/AccessibilityMap",
    "fetchedAt": "2026-06-02T09:44:57.200Z"
  },
  "4/34": {
    "precinct": "4/34",
    "lat": 40.192858,
    "lng": 44.500242,
    "station": "«Երևանի «Արգենտինյան Հանրապետություն» հ.76 հիմնական դպրոց» ՊՈԱԿ,  Մ. Բաղրամյան 52",
    "marz": "Երևան",
    "community": "Արաբկիր",
    "source": "elections.am/AccessibilityMap",
    "fetchedAt": "2026-06-02T09:44:57.200Z"
  },
  "4/35": {
    "precinct": "4/35",
    "lat": 40.193004,
    "lng": 44.497445,
    "station": "«Երևանի Հ. Հայրապետյանի անվան հ.78 հիմնական դպրոց» ՊՈԱԿ, Մ. Բաղրամյան 59",
    "marz": "Երևան",
    "community": "Արաբկիր",
    "source": "elections.am/AccessibilityMap",
    "fetchedAt": "2026-06-02T09:44:57.200Z"
  },
  "4/36": {
    "precinct": "4/36",
    "lat": 40.210644,
    "lng": 44.503585,
    "station": "Վ. Բրյուսովի անվ. ՊԼՀ հանրակացարան, Հ.էմինի 123",
    "marz": "Երևան",
    "community": "Արաբկիր",
    "source": "elections.am/AccessibilityMap",
    "fetchedAt": "2026-06-02T09:44:57.200Z"
  },
  "4/37": {
    "precinct": "4/37",
    "lat": 40.208292,
    "lng": 44.499228,
    "station": "Վ․ Փափազյան 27",
    "marz": "Երևան",
    "community": "Արաբկիր",
    "source": "elections.am/AccessibilityMap",
    "fetchedAt": "2026-06-02T09:44:57.200Z"
  },
  "4/38": {
    "precinct": "4/38",
    "lat": 40.204059,
    "lng": 44.499012,
    "station": "Ալ. Հեքիմյանի անվան երաժշտ. դպրոց, Վ.Վաղարշյան 24/17",
    "marz": "Երևան",
    "community": "Արաբկիր",
    "source": "elections.am/AccessibilityMap",
    "fetchedAt": "2026-06-02T09:44:57.200Z"
  },
  "4/39": {
    "precinct": "4/39",
    "lat": 40.204059,
    "lng": 44.499012,
    "station": "Ալ. Հեքիմյանի անվան երաժշտ. դպրոց, Վ.Վաղարշյան 24/17",
    "marz": "Երևան",
    "community": "Արաբկիր",
    "source": "elections.am/AccessibilityMap",
    "fetchedAt": "2026-06-02T09:44:57.200Z"
  },
  "4/40": {
    "precinct": "4/40",
    "lat": 40.203784,
    "lng": 44.498814,
    "station": "«Երևանի Ալ. Շիրվանզադեի անվան հ.21 հիմնական դպրոց» ՊՈԱԿ, Վ. Վաղարշյան 24",
    "marz": "Երևան",
    "community": "Արաբկիր",
    "source": "elections.am/AccessibilityMap",
    "fetchedAt": "2026-06-02T09:44:57.200Z"
  },
  "4/41": {
    "precinct": "4/41",
    "lat": 40.203784,
    "lng": 44.498814,
    "station": "«Երևանի Ալ. Շիրվանզադեի անվան հ.21 հիմնական դպրոց» ՊՈԱԿ, Վ. Վաղարշյան 24",
    "marz": "Երևան",
    "community": "Արաբկիր",
    "source": "elections.am/AccessibilityMap",
    "fetchedAt": "2026-06-02T09:44:57.200Z"
  },
  "4/42": {
    "precinct": "4/42",
    "lat": 40.202553,
    "lng": 44.500736,
    "station": "Հ.31 մանկապարտեզ Գ. Արծրունու 57",
    "marz": "Երևան",
    "community": "Արաբկիր",
    "source": "elections.am/AccessibilityMap",
    "fetchedAt": "2026-06-02T09:44:57.200Z"
  },
  "4/43": {
    "precinct": "4/43",
    "lat": 40.200419,
    "lng": 44.498017,
    "station": "«Երևանի Ս. Զորյանի անվան հ.56 հիմնական դպրոց» ՊՈԱԿ, Հր. Քոչարի 13",
    "marz": "Երևան",
    "community": "Արաբկիր",
    "source": "elections.am/AccessibilityMap",
    "fetchedAt": "2026-06-02T09:44:57.200Z"
  },
  "4/44": {
    "precinct": "4/44",
    "lat": 40.197185,
    "lng": 44.493624,
    "station": "«Կարեն Դեմիրճյանի անվան Երևանի մետրոպոլիտեն» ՓԲԸ,  Մ. Բաղրամյան 78",
    "marz": "Երևան",
    "community": "Արաբկիր",
    "source": "elections.am/AccessibilityMap",
    "fetchedAt": "2026-06-02T09:44:57.200Z"
  },
  "4/45": {
    "precinct": "4/45",
    "lat": 40.201158,
    "lng": 44.497547,
    "station": "Հ.32 մանկապարտեզ  Գ. Արծրունու 25",
    "marz": "Երևան",
    "community": "Արաբկիր",
    "source": "elections.am/AccessibilityMap",
    "fetchedAt": "2026-06-02T09:44:57.200Z"
  },
  "4/46": {
    "precinct": "4/46",
    "lat": 40.201824,
    "lng": 44.49231,
    "station": "«Երևանի Ն. Զարյանի անվան հ.130 հիմնական դպրոց» ՊՈԱԿ, Հ.Հակոբյան նրբ. 3",
    "marz": "Երևան",
    "community": "Արաբկիր",
    "source": "elections.am/AccessibilityMap",
    "fetchedAt": "2026-06-02T09:44:57.200Z"
  },
  "4/47": {
    "precinct": "4/47",
    "lat": 40.201824,
    "lng": 44.49231,
    "station": "«Երևանի Ն. Զարյանի անվան հ.130 հիմնական դպրոց» ՊՈԱԿ, Հ.Հակոբյան նրբ. 3",
    "marz": "Երևան",
    "community": "Արաբկիր",
    "source": "elections.am/AccessibilityMap",
    "fetchedAt": "2026-06-02T09:44:57.200Z"
  },
  "4/48": {
    "precinct": "4/48",
    "lat": 40.204026,
    "lng": 44.491796,
    "station": "«Երևանի Ս. Կապուտիկյանի անվան հ.145 հիմնական դպրոց» ՊՈԱԿ, Հ. Էմինի 8",
    "marz": "Երևան",
    "community": "Արաբկիր",
    "source": "elections.am/AccessibilityMap",
    "fetchedAt": "2026-06-02T09:44:57.200Z"
  },
  "4/49": {
    "precinct": "4/49",
    "lat": 40.204026,
    "lng": 44.491796,
    "station": "«Երևանի Ս. Կապուտիկյանի անվան հ.145 հիմնական դպրոց» ՊՈԱԿ, Հ. Էմինի 8",
    "marz": "Երևան",
    "community": "Արաբկիր",
    "source": "elections.am/AccessibilityMap",
    "fetchedAt": "2026-06-02T09:44:57.200Z"
  },
  "4/50": {
    "precinct": "4/50",
    "lat": 40.19511,
    "lng": 44.487846,
    "station": "Հ.27 մանկապարտեզ  Կիևյան 7",
    "marz": "Երևան",
    "community": "Արաբկիր",
    "source": "elections.am/AccessibilityMap",
    "fetchedAt": "2026-06-02T09:44:57.200Z"
  },
  "4/51": {
    "precinct": "4/51",
    "lat": 40.195851,
    "lng": 44.488811,
    "station": "«Երևանի Ղ. Աղայանի անվան հ.63 հիմնական դպրոց» ՊՈԱԿ, Կիևյան 9",
    "marz": "Երևան",
    "community": "Արաբկիր",
    "source": "elections.am/AccessibilityMap",
    "fetchedAt": "2026-06-02T09:44:57.200Z"
  },
  "4/52": {
    "precinct": "4/52",
    "lat": 40.192958,
    "lng": 44.489681,
    "station": "«Երևանի Հ. Գալստյանի անվան հ.83 ավագ դպրոց» ՊՈԱԿ, Օրբելի եղբայրների 63",
    "marz": "Երևան",
    "community": "Արաբկիր",
    "source": "elections.am/AccessibilityMap",
    "fetchedAt": "2026-06-02T09:44:57.200Z"
  },
  "4/53": {
    "precinct": "4/53",
    "lat": 40.195129,
    "lng": 44.489372,
    "station": "«Հայգյուղշիննախագիծ» ինստիտուտ, Կիևյան 16",
    "marz": "Երևան",
    "community": "Արաբկիր",
    "source": "elections.am/AccessibilityMap",
    "fetchedAt": "2026-06-02T09:44:57.200Z"
  },
  "4/54": {
    "precinct": "4/54",
    "lat": 40.19327397,
    "lng": 44.49753053,
    "station": "«Երևանի Հ.Հայրապետյանի անվան հ.78 հիմնական դպրոց» ՊՈԱԿ, Մ. Բաղրամյան 59",
    "marz": "Երևան",
    "community": "Արաբկիր",
    "source": "elections.am/AccessibilityMap",
    "fetchedAt": "2026-06-02T09:44:57.200Z"
  },
  "5/1": {
    "precinct": "5/1",
    "lat": 40.215912,
    "lng": 44.475785,
    "station": "«Երևանի Աշոտ Մանուկյանի անվան հ.93 միջնակարգ դպրոց» ՊՈԱԿ սեփ. սեկտոր, Աշոտ Մանուկյան փողոց /Դավթաշեն 5-րդ փողոց/",
    "marz": "Երևան",
    "community": "Դավթաշեն",
    "source": "elections.am/AccessibilityMap",
    "fetchedAt": "2026-06-02T09:44:57.200Z"
  },
  "5/2": {
    "precinct": "5/2",
    "lat": 40.215912,
    "lng": 44.475785,
    "station": "«Երևանի Աշոտ Մանուկյանի անվան հ.93 միջնակարգ դպրոց» ՊՈԱԿ սեփ. սեկտոր, Աշոտ Մանուկյան փողոց /Դավթաշեն 5-րդ փողոց/",
    "marz": "Երևան",
    "community": "Դավթաշեն",
    "source": "elections.am/AccessibilityMap",
    "fetchedAt": "2026-06-02T09:44:57.200Z"
  },
  "5/3": {
    "precinct": "5/3",
    "lat": 40.215912,
    "lng": 44.475785,
    "station": "«Երևանի Աշոտ Մանուկյանի անվան հ.93 միջնակարգ դպրոց» ՊՈԱԿ սեփ. սեկտոր, Աշոտ Մանուկյան փողոց /Դավթաշեն 5-րդ փողոց/",
    "marz": "Երևան",
    "community": "Դավթաշեն",
    "source": "elections.am/AccessibilityMap",
    "fetchedAt": "2026-06-02T09:44:57.200Z"
  },
  "5/4": {
    "precinct": "5/4",
    "lat": 40.22043,
    "lng": 44.487574,
    "station": "«Երևանի հ.61 մանկապարտեզ» ՊՈԱԿ, 1-ին թաղամաս, 16/1",
    "marz": "Երևան",
    "community": "Դավթաշեն",
    "source": "elections.am/AccessibilityMap",
    "fetchedAt": "2026-06-02T09:44:57.200Z"
  },
  "5/5": {
    "precinct": "5/5",
    "lat": 40.220472,
    "lng": 44.487492,
    "station": "«Երևանի հ.58  մանկապարտեզ» ՀՈԱԿ, 1-ին թաղամաս, 27/2",
    "marz": "Երևան",
    "community": "Դավթաշեն",
    "source": "elections.am/AccessibilityMap",
    "fetchedAt": "2026-06-02T09:44:57.200Z"
  },
  "5/6": {
    "precinct": "5/6",
    "lat": 40.219665,
    "lng": 44.488545,
    "station": "«Երևանի հ.200 դպրոց» ՊՈԱԿ, 1-ին թաղամաս",
    "marz": "Երևան",
    "community": "Դավթաշեն",
    "source": "elections.am/AccessibilityMap",
    "fetchedAt": "2026-06-02T09:44:57.200Z"
  },
  "5/7": {
    "precinct": "5/7",
    "lat": 40.220652,
    "lng": 44.489745,
    "station": "«Երևանի Սամվել Գևորգյանի անվան հ.189 ավագ դպրոց» ՊՈԱԿ,  1-ին թաղամաս",
    "marz": "Երևան",
    "community": "Դավթաշեն",
    "source": "elections.am/AccessibilityMap",
    "fetchedAt": "2026-06-02T09:44:57.200Z"
  },
  "5/8": {
    "precinct": "5/8",
    "lat": 40.216601,
    "lng": 44.490158,
    "station": "«Երևանի հ.60 մանկապարտեզ» ՀՈԱԿ, 3-րդ թաղամաս, 9/1",
    "marz": "Երևան",
    "community": "Դավթաշեն",
    "source": "elections.am/AccessibilityMap",
    "fetchedAt": "2026-06-02T09:44:57.200Z"
  },
  "5/9": {
    "precinct": "5/9",
    "lat": 40.216601,
    "lng": 44.490158,
    "station": "«Երևանի հ.60 մանկապարտեզ» ՀՈԱԿ, 3-րդ թաղամաս, 9/1",
    "marz": "Երևան",
    "community": "Դավթաշեն",
    "source": "elections.am/AccessibilityMap",
    "fetchedAt": "2026-06-02T09:44:57.200Z"
  },
  "5/10": {
    "precinct": "5/10",
    "lat": 40.216601,
    "lng": 44.490158,
    "station": "«Երևանի հ.60 մանկապարտեզ» ՀՈԱԿ, 3-րդ թաղամաս, 9/1",
    "marz": "Երևան",
    "community": "Դավթաշեն",
    "source": "elections.am/AccessibilityMap",
    "fetchedAt": "2026-06-02T09:44:57.200Z"
  },
  "5/11": {
    "precinct": "5/11",
    "lat": 40.224529,
    "lng": 44.49431,
    "station": "«Երևանի Գևորգ Վարդանյանի անվան հ.192 հիմնական դպրոց» ՊՈԱԿ, 2-րդ թաղամաս",
    "marz": "Երևան",
    "community": "Դավթաշեն",
    "source": "elections.am/AccessibilityMap",
    "fetchedAt": "2026-06-02T09:44:57.200Z"
  },
  "5/12": {
    "precinct": "5/12",
    "lat": 40.224529,
    "lng": 44.49431,
    "station": "«Երևանի Գևորգ Վարդանյանի անվան հ.192 հիմնական դպրոց» ՊՈԱԿ, 2-րդ թաղամաս",
    "marz": "Երևան",
    "community": "Դավթաշեն",
    "source": "elections.am/AccessibilityMap",
    "fetchedAt": "2026-06-02T09:44:57.200Z"
  },
  "5/13": {
    "precinct": "5/13",
    "lat": 40.224663,
    "lng": 44.492687,
    "station": "«Երևանի հ.59 մանկապարտեզ» ՀՈԱԿ, 2-րդ թաղամաս, 7/1",
    "marz": "Երևան",
    "community": "Դավթաշեն",
    "source": "elections.am/AccessibilityMap",
    "fetchedAt": "2026-06-02T09:44:57.200Z"
  },
  "5/14": {
    "precinct": "5/14",
    "lat": 40.224663,
    "lng": 44.492687,
    "station": "«Երևանի հ.59 մանկապարտեզ» ՀՈԱԿ, 2-րդ թաղամաս, 7/1",
    "marz": "Երևան",
    "community": "Դավթաշեն",
    "source": "elections.am/AccessibilityMap",
    "fetchedAt": "2026-06-02T09:44:57.200Z"
  },
  "5/15": {
    "precinct": "5/15",
    "lat": 40.221335,
    "lng": 44.498622,
    "station": "«Երևանի Հենրիկ Խաչատրյանի անվան հ.199 հիմնական դպրոց» ՊՈԱԿ, 4-րդ թաղամաս",
    "marz": "Երևան",
    "community": "Դավթաշեն",
    "source": "elections.am/AccessibilityMap",
    "fetchedAt": "2026-06-02T09:44:57.200Z"
  },
  "5/16": {
    "precinct": "5/16",
    "lat": 40.221335,
    "lng": 44.498622,
    "station": "«Երևանի Հենրիկ Խաչատրյանի անվան հ.199 հիմնական դպրոց» ՊՈԱԿ, 4-րդ թաղամաս",
    "marz": "Երևան",
    "community": "Դավթաշեն",
    "source": "elections.am/AccessibilityMap",
    "fetchedAt": "2026-06-02T09:44:57.200Z"
  },
  "5/17": {
    "precinct": "5/17",
    "lat": 40.221459,
    "lng": 44.499172,
    "station": "«Երևանի Ավետ Տերտերյանի անվան արվեստի դպրոց» ՀՈԱԿ, 4-րդ թաղամաս, 50/8",
    "marz": "Երևան",
    "community": "Դավթաշեն",
    "source": "elections.am/AccessibilityMap",
    "fetchedAt": "2026-06-02T09:44:57.200Z"
  },
  "5/18": {
    "precinct": "5/18",
    "lat": 40.22245,
    "lng": 44.499252,
    "station": "«Երևանի Աշոտ Նավասարդյանի  անվան հ.196 հիմնական դպրոց» ՊՈԱԿ, 4-րդ թաղամաս",
    "marz": "Երևան",
    "community": "Դավթաշեն",
    "source": "elections.am/AccessibilityMap",
    "fetchedAt": "2026-06-02T09:44:57.200Z"
  },
  "5/19": {
    "precinct": "5/19",
    "lat": 40.22245,
    "lng": 44.499252,
    "station": "«Երևանի Աշոտ Նավասարդյանի  անվան հ.196 հիմնական դպրոց» ՊՈԱԿ, 4-րդ թաղամաս",
    "marz": "Երևան",
    "community": "Դավթաշեն",
    "source": "elections.am/AccessibilityMap",
    "fetchedAt": "2026-06-02T09:44:57.200Z"
  },
  "6/1": {
    "precinct": "6/1",
    "lat": 40.193637,
    "lng": 44.471125,
    "station": "«Երևանի Պեյո Յավորովի անվան հ․131 հիմնական դպրոց»ՊՈԱԿ, Արզումանյան 22",
    "marz": "Երևան",
    "community": "Աջափնյակ",
    "source": "elections.am/AccessibilityMap",
    "fetchedAt": "2026-06-02T09:44:57.200Z"
  },
  "6/2": {
    "precinct": "6/2",
    "lat": 40.193637,
    "lng": 44.471125,
    "station": "«Երևանի Պեյո Յավորովի անվան հ․131 հիմնական դպրոց»ՊՈԱԿ, Արզումանյան 22",
    "marz": "Երևան",
    "community": "Աջափնյակ",
    "source": "elections.am/AccessibilityMap",
    "fetchedAt": "2026-06-02T09:44:57.200Z"
  },
  "6/3": {
    "precinct": "6/3",
    "lat": 40.19649,
    "lng": 44.476397,
    "station": "«Երևանի Հ․ Մորգենթաուի անվան հ․126 հիմնական դպրոց»ՊՈԱԿ, Էստոնական 8Ա",
    "marz": "Երևան",
    "community": "Աջափնյակ",
    "source": "elections.am/AccessibilityMap",
    "fetchedAt": "2026-06-02T09:44:57.200Z"
  },
  "6/4": {
    "precinct": "6/4",
    "lat": 40.19649,
    "lng": 44.476397,
    "station": "«Երևանի Հ․ Մորգենթաուի անվան հ․126 հիմնական դպրոց»ՊՈԱԿ, Էստոնական 8Ա",
    "marz": "Երևան",
    "community": "Աջափնյակ",
    "source": "elections.am/AccessibilityMap",
    "fetchedAt": "2026-06-02T09:44:57.200Z"
  },
  "6/5": {
    "precinct": "6/5",
    "lat": 40.19649,
    "lng": 44.476397,
    "station": "«Երևանի Հ․ Մորգենթաուի անվան հ․126 հիմնական դպրոց»ՊՈԱԿ, Էստոնական 8Ա",
    "marz": "Երևան",
    "community": "Աջափնյակ",
    "source": "elections.am/AccessibilityMap",
    "fetchedAt": "2026-06-02T09:44:57.200Z"
  },
  "6/6": {
    "precinct": "6/6",
    "lat": 40.200189,
    "lng": 44.468374,
    "station": "«Երևանի  Գուրգեն Մարգարյանի անվան հ․94 դպրոց»ՊՈԱԿ, Բաշինջաղյան 100",
    "marz": "Երևան",
    "community": "Աջափնյակ",
    "source": "elections.am/AccessibilityMap",
    "fetchedAt": "2026-06-02T09:44:57.200Z"
  },
  "6/7": {
    "precinct": "6/7",
    "lat": 40.200189,
    "lng": 44.468374,
    "station": "«Երևանի  Գուրգեն Մարգարյանի անվան հ․94 դպրոց»ՊՈԱԿ, Բաշինջաղյան 100",
    "marz": "Երևան",
    "community": "Աջափնյակ",
    "source": "elections.am/AccessibilityMap",
    "fetchedAt": "2026-06-02T09:44:57.200Z"
  },
  "6/8": {
    "precinct": "6/8",
    "lat": 40.196949,
    "lng": 44.470897,
    "station": "«Երևանի  Ռաֆայել Իշխանյանի անվան հ․153 հիմնական դպրոց»ՊՈԱԿ, Առաքելյան 47",
    "marz": "Երևան",
    "community": "Աջափնյակ",
    "source": "elections.am/AccessibilityMap",
    "fetchedAt": "2026-06-02T09:44:57.200Z"
  },
  "6/9": {
    "precinct": "6/9",
    "lat": 40.196949,
    "lng": 44.470897,
    "station": "«Երևանի  Ռաֆայել Իշխանյանի անվան հ․153 հիմնական դպրոց»ՊՈԱԿ, Առաքելյան 47",
    "marz": "Երևան",
    "community": "Աջափնյակ",
    "source": "elections.am/AccessibilityMap",
    "fetchedAt": "2026-06-02T09:44:57.200Z"
  },
  "6/10": {
    "precinct": "6/10",
    "lat": 40.196949,
    "lng": 44.470897,
    "station": "«Երևանի  Ռաֆայել Իշխանյանի անվան հ․153 հիմնական դպրոց»ՊՈԱԿ, Առաքելյան 47",
    "marz": "Երևան",
    "community": "Աջափնյակ",
    "source": "elections.am/AccessibilityMap",
    "fetchedAt": "2026-06-02T09:44:57.200Z"
  },
  "6/11": {
    "precinct": "6/11",
    "lat": 40.202997,
    "lng": 44.473596,
    "station": "«Երևանի հ․102 հիմնական դպրոց»ՊՈԱԿ, Ֆուչիկի 2 նրբ․ 11",
    "marz": "Երևան",
    "community": "Աջափնյակ",
    "source": "elections.am/AccessibilityMap",
    "fetchedAt": "2026-06-02T09:44:57.200Z"
  },
  "6/12": {
    "precinct": "6/12",
    "lat": 40.202997,
    "lng": 44.473596,
    "station": "«Երևանի հ․102 հիմնական դպրոց»ՊՈԱԿ, Ֆուչիկի 2 նրբ․ 11",
    "marz": "Երևան",
    "community": "Աջափնյակ",
    "source": "elections.am/AccessibilityMap",
    "fetchedAt": "2026-06-02T09:44:57.200Z"
  },
  "6/13": {
    "precinct": "6/13",
    "lat": 40.20337951,
    "lng": 44.47427054,
    "station": "«Երևանի հ․43 մսուր-մանկապարտեզ» ՀՈԱԿ, Ֆուչիկի 2 նրբ․ 9",
    "marz": "Երևան",
    "community": "Աջափնյակ",
    "source": "elections.am/AccessibilityMap",
    "fetchedAt": "2026-06-02T09:44:57.200Z"
  },
  "6/14": {
    "precinct": "6/14",
    "lat": 40.204564,
    "lng": 44.478843,
    "station": "«Երևանի Դավիթ Սարապյանի անվան հ․100 հիմնական դպրոց» ՊՈԱԿ, Մարգարյան 9",
    "marz": "Երևան",
    "community": "Աջափնյակ",
    "source": "elections.am/AccessibilityMap",
    "fetchedAt": "2026-06-02T09:44:57.200Z"
  },
  "6/15": {
    "precinct": "6/15",
    "lat": 40.204564,
    "lng": 44.478843,
    "station": "«Երևանի Դավիթ Սարապյանի անվան հ․100 հիմնական դպրոց» ՊՈԱԿ, Մարգարյան 9",
    "marz": "Երևան",
    "community": "Աջափնյակ",
    "source": "elections.am/AccessibilityMap",
    "fetchedAt": "2026-06-02T09:44:57.200Z"
  },
  "6/16": {
    "precinct": "6/16",
    "lat": 40.203717,
    "lng": 44.464531,
    "station": "«Երևանի հ․156 հիմնական դպրոց» ՊՈԱԿ, Շիրազի 11",
    "marz": "Երևան",
    "community": "Աջափնյակ",
    "source": "elections.am/AccessibilityMap",
    "fetchedAt": "2026-06-02T09:44:57.200Z"
  },
  "6/17": {
    "precinct": "6/17",
    "lat": 40.203717,
    "lng": 44.464531,
    "station": "«Երևանի հ․156 հիմնական դպրոց» ՊՈԱԿ, Շիրազի 11",
    "marz": "Երևան",
    "community": "Աջափնյակ",
    "source": "elections.am/AccessibilityMap",
    "fetchedAt": "2026-06-02T09:44:57.200Z"
  },
  "6/18": {
    "precinct": "6/18",
    "lat": 40.205028,
    "lng": 44.466645,
    "station": "«Երևանի Լևոն Միրիջանյանի անվան հ․155 դպրոց» Բաշինջաղյան 2 նրբ․",
    "marz": "Երևան",
    "community": "Աջափնյակ",
    "source": "elections.am/AccessibilityMap",
    "fetchedAt": "2026-06-02T09:44:57.200Z"
  },
  "6/19": {
    "precinct": "6/19",
    "lat": 40.205028,
    "lng": 44.466645,
    "station": "«Երևանի Լևոն Միրիջանյանի անվան հ․155 դպրոց» Բաշինջաղյան 2 նրբ․",
    "marz": "Երևան",
    "community": "Աջափնյակ",
    "source": "elections.am/AccessibilityMap",
    "fetchedAt": "2026-06-02T09:44:57.200Z"
  },
  "6/20": {
    "precinct": "6/20",
    "lat": 40.206001,
    "lng": 44.466627,
    "station": "«Երևանի հ․47 մսուր-մանկապարտեզ» ՀՈԱԿ, Բաշինջաղյան 2 նրբ․ 4",
    "marz": "Երևան",
    "community": "Աջափնյակ",
    "source": "elections.am/AccessibilityMap",
    "fetchedAt": "2026-06-02T09:44:57.200Z"
  },
  "6/21": {
    "precinct": "6/21",
    "lat": 40.20485275,
    "lng": 44.46668399,
    "station": "«Մանկապատանեկան տեխնիկական ստեղծագործական կենտրոն» ՀՈԱԿ, Բաշինջաղյան 2 նրբ․ 3",
    "marz": "Երևան",
    "community": "Աջափնյակ",
    "source": "elections.am/AccessibilityMap",
    "fetchedAt": "2026-06-02T09:44:57.200Z"
  },
  "6/22": {
    "precinct": "6/22",
    "lat": 40.207472,
    "lng": 44.465842,
    "station": "«Երևանի Ամենայն Հայոց կաթողիկոս Վազգեն Առաջինի անվան հ․ 168 հիմնական դպրոց» ՊՈԱԿ, Բաշինջաղյան 1 նրբ․ ",
    "marz": "Երևան",
    "community": "Աջափնյակ",
    "source": "elections.am/AccessibilityMap",
    "fetchedAt": "2026-06-02T09:44:57.200Z"
  },
  "6/23": {
    "precinct": "6/23",
    "lat": 40.207472,
    "lng": 44.465842,
    "station": "«Երևանի Ամենայն Հայոց կաթողիկոս Վազգեն Առաջինի անվան հ․ 168 հիմնական դպրոց» ՊՈԱԿ, Բաշինջաղյան 1 նրբ․",
    "marz": "Երևան",
    "community": "Աջափնյակ",
    "source": "elections.am/AccessibilityMap",
    "fetchedAt": "2026-06-02T09:44:57.200Z"
  },
  "6/24": {
    "precinct": "6/24",
    "lat": 40.206942,
    "lng": 44.469734,
    "station": "«Երևանի հ․35 մսուր-մանկապարտեզ» ՀՈԱԿ, Բաշինջաղյան 184/5",
    "marz": "Երևան",
    "community": "Աջափնյակ",
    "source": "elections.am/AccessibilityMap",
    "fetchedAt": "2026-06-02T09:44:57.200Z"
  },
  "6/25": {
    "precinct": "6/25",
    "lat": 40.207258,
    "lng": 44.473042,
    "station": "«Երևանի հ․109 ավագ դպրոց» ՊՈԱԿ, Մարգարյան 2 նրբ․ 14",
    "marz": "Երևան",
    "community": "Աջափնյակ",
    "source": "elections.am/AccessibilityMap",
    "fetchedAt": "2026-06-02T09:44:57.200Z"
  },
  "6/26": {
    "precinct": "6/26",
    "lat": 40.207492,
    "lng": 44.473986,
    "station": "«Երևանի Վիլյամ Սարոյանի անվան հ․138 հիմնական դպրոց» ՊՈԱԿ, Մարգարյան  փ․ 30Ա",
    "marz": "Երևան",
    "community": "Աջափնյակ",
    "source": "elections.am/AccessibilityMap",
    "fetchedAt": "2026-06-02T09:44:57.200Z"
  },
  "6/27": {
    "precinct": "6/27",
    "lat": 40.207492,
    "lng": 44.473986,
    "station": "«Երևանի Վիլյամ Սարոյանի անվան հ․138 հիմնական դպրոց» ՊՈԱԿ, Մարգարյան  փ․ 30Ա",
    "marz": "Երևան",
    "community": "Աջափնյակ",
    "source": "elections.am/AccessibilityMap",
    "fetchedAt": "2026-06-02T09:44:57.200Z"
  },
  "6/28": {
    "precinct": "6/28",
    "lat": 40.21094917,
    "lng": 44.47029315,
    "station": "«Երևանի հ․185 հիմնական դպրոց» ՊՈԱԿ, Հ․ Բեկնազարյան 5/1",
    "marz": "Երևան",
    "community": "Աջափնյակ",
    "source": "elections.am/AccessibilityMap",
    "fetchedAt": "2026-06-02T09:44:57.200Z"
  },
  "6/29": {
    "precinct": "6/29",
    "lat": 40.21094917,
    "lng": 44.47029315,
    "station": "«Երևանի հ․185 հիմնական դպրոց» ՊՈԱԿ, Հ․ Բեկնազարյան 5/1",
    "marz": "Երևան",
    "community": "Աջափնյակ",
    "source": "elections.am/AccessibilityMap",
    "fetchedAt": "2026-06-02T09:44:57.200Z"
  },
  "6/30": {
    "precinct": "6/30",
    "lat": 40.21026896,
    "lng": 44.46924101,
    "station": "«Երևանի Գևորգ Չաուշի անվան հ․ 188 հիմնական դպրոց» ՊՈԱԿ, Բեկնազարյան 5",
    "marz": "Երևան",
    "community": "Աջափնյակ",
    "source": "elections.am/AccessibilityMap",
    "fetchedAt": "2026-06-02T09:44:57.200Z"
  },
  "6/31": {
    "precinct": "6/31",
    "lat": 40.21026896,
    "lng": 44.46924101,
    "station": "«Երևանի Գևորգ Չաուշի անվան հ․ 188 հիմնական դպրոց» ՊՈԱԿ, Բեկնազարյան 5",
    "marz": "Երևան",
    "community": "Աջափնյակ",
    "source": "elections.am/AccessibilityMap",
    "fetchedAt": "2026-06-02T09:44:57.200Z"
  },
  "6/32": {
    "precinct": "6/32",
    "lat": 40.210048,
    "lng": 44.467517,
    "station": "«Երևանի  հ․ 195 ավագ դպրոց» ՊՈԱԿ, Մազմանյան 5Ա",
    "marz": "Երևան",
    "community": "Աջափնյակ",
    "source": "elections.am/AccessibilityMap",
    "fetchedAt": "2026-06-02T09:44:57.200Z"
  },
  "6/33": {
    "precinct": "6/33",
    "lat": 40.212096,
    "lng": 44.4711,
    "station": "«Աջափնյակ գեղագիտական կենտրոն» ՀՈԱԿ, Նորաշեն/16/թղմ․2, 23/13",
    "marz": "Երևան",
    "community": "Աջափնյակ",
    "source": "elections.am/AccessibilityMap",
    "fetchedAt": "2026-06-02T09:44:57.200Z"
  },
  "6/34": {
    "precinct": "6/34",
    "lat": 40.212096,
    "lng": 44.4711,
    "station": "«Աջափնյակ գեղագիտական կենտրոն» ՀՈԱԿ, Նորաշեն/16/թղմ․2, 23/13",
    "marz": "Երևան",
    "community": "Աջափնյակ",
    "source": "elections.am/AccessibilityMap",
    "fetchedAt": "2026-06-02T09:44:57.200Z"
  },
  "6/35": {
    "precinct": "6/35",
    "lat": 40.21159,
    "lng": 44.460225,
    "station": "«Երևանի Գևորգ Արշակյանի անվան հ․ 22 հիմնական դպրոց» ՊՈԱԿ, Նազարբեկյան թղմ․",
    "marz": "Երևան",
    "community": "Աջափնյակ",
    "source": "elections.am/AccessibilityMap",
    "fetchedAt": "2026-06-02T09:44:57.200Z"
  },
  "6/36": {
    "precinct": "6/36",
    "lat": 40.21159,
    "lng": 44.460225,
    "station": "«Երևանի Գևորգ Արշակյանի անվան հ․ 22 հիմնական դպրոց» ՊՈԱԿ, Նազարբեկյան թղմ․",
    "marz": "Երևան",
    "community": "Աջափնյակ",
    "source": "elections.am/AccessibilityMap",
    "fetchedAt": "2026-06-02T09:44:57.200Z"
  },
  "6/37": {
    "precinct": "6/37",
    "lat": 40.21159,
    "lng": 44.460225,
    "station": "«Երևանի Գևորգ Արշակյանի անվան հ․ 22 հիմնական դպրոց» ՊՈԱԿ, Նազարբեկյան թղմ․",
    "marz": "Երևան",
    "community": "Աջափնյակ",
    "source": "elections.am/AccessibilityMap",
    "fetchedAt": "2026-06-02T09:44:57.200Z"
  },
  "6/38": {
    "precinct": "6/38",
    "lat": 40.196061,
    "lng": 44.451197,
    "station": "«Երևանի  Ջիվան Աբրահամյանի անվան հ. 111 հիմնական դպրոց» ՊՈԱԿ, Լուկաշինի 1-ին փ․ 5",
    "marz": "Երևան",
    "community": "Աջափնյակ",
    "source": "elections.am/AccessibilityMap",
    "fetchedAt": "2026-06-02T09:44:57.200Z"
  },
  "6/39": {
    "precinct": "6/39",
    "lat": 40.196061,
    "lng": 44.451197,
    "station": "«Երևանի  Ջիվան Աբրահամյանի անվան հ. 111 հիմնական դպրոց» ՊՈԱԿ, Լուկաշինի 1-ին փ․ 5",
    "marz": "Երևան",
    "community": "Աջափնյակ",
    "source": "elections.am/AccessibilityMap",
    "fetchedAt": "2026-06-02T09:44:57.200Z"
  },
  "6/40": {
    "precinct": "6/40",
    "lat": 40.189892,
    "lng": 44.454001,
    "station": "«Երևանի  Միսաք Մեծարենցի անվան հ․146 հիմնական դպրոց» ՊՈԱԿ, Լուկաշինի 6",
    "marz": "Երևան",
    "community": "Աջափնյակ",
    "source": "elections.am/AccessibilityMap",
    "fetchedAt": "2026-06-02T09:44:57.200Z"
  },
  "6/41": {
    "precinct": "6/41",
    "lat": 40.189892,
    "lng": 44.454001,
    "station": "«Երևանի  Միսաք Մեծարենցի անվան հ․146 հիմնական դպրոց» ՊՈԱԿ, Լուկաշինի 6",
    "marz": "Երևան",
    "community": "Աջափնյակ",
    "source": "elections.am/AccessibilityMap",
    "fetchedAt": "2026-06-02T09:44:57.200Z"
  },
  "6/42": {
    "precinct": "6/42",
    "lat": 40.189892,
    "lng": 44.454001,
    "station": "«Երևանի  Միսաք Մեծարենցի անվան հ․146 հիմնական դպրոց» ՊՈԱԿ, Լուկաշինի 6",
    "marz": "Երևան",
    "community": "Աջափնյակ",
    "source": "elections.am/AccessibilityMap",
    "fetchedAt": "2026-06-02T09:44:57.200Z"
  },
  "6/43": {
    "precinct": "6/43",
    "lat": 40.212566,
    "lng": 44.434518,
    "station": "«Երևանի հ․108 միջնակարգ դպրոց» ՊՈԱԿ, Սահակ Պարթևի փ․ (Սիլիկյան 10)",
    "marz": "Երևան",
    "community": "Աջափնյակ",
    "source": "elections.am/AccessibilityMap",
    "fetchedAt": "2026-06-02T09:44:57.200Z"
  },
  "6/44": {
    "precinct": "6/44",
    "lat": 40.212566,
    "lng": 44.434518,
    "station": "«Երևանի հ․108 միջնակարգ դպրոց» ՊՈԱԿ, Սահակ Պարթևի փ․ (Սիլիկյան 10)",
    "marz": "Երևան",
    "community": "Աջափնյակ",
    "source": "elections.am/AccessibilityMap",
    "fetchedAt": "2026-06-02T09:44:57.200Z"
  },
  "6/45": {
    "precinct": "6/45",
    "lat": 40.210831,
    "lng": 44.434888,
    "station": "«Երևանի հ․ 37 մսուր-մանակապարտեզ» ՀՈԱԿ, Սահակ Պարթևի փ. 39 (Սիլիկյան 10 փ․ 39)",
    "marz": "Երևան",
    "community": "Աջափնյակ",
    "source": "elections.am/AccessibilityMap",
    "fetchedAt": "2026-06-02T09:44:57.200Z"
  },
  "6/46": {
    "precinct": "6/46",
    "lat": 40.193637,
    "lng": 44.471125,
    "station": "«Երևանի Պեյո Յավորովի անվան հ․131 հիմնական դպրոց»ՊՈԱԿ, Արզումանյան փ․22",
    "marz": "Երևան",
    "community": "Աջափնյակ",
    "source": "elections.am/AccessibilityMap",
    "fetchedAt": "2026-06-02T09:44:57.200Z"
  },
  "6/47": {
    "precinct": "6/47",
    "lat": 40.193637,
    "lng": 44.471125,
    "station": "«Երևանի Պեյո Յավորովի անվան հ․131 հիմնական դպրոց»ՊՈԱԿ, Արզումանյան փ․22",
    "marz": "Երևան",
    "community": "Աջափնյակ",
    "source": "elections.am/AccessibilityMap",
    "fetchedAt": "2026-06-02T09:44:57.200Z"
  },
  "6/48": {
    "precinct": "6/48",
    "lat": 40.192743,
    "lng": 44.476043,
    "station": "«Երևանի Ալեքսանդր Բլոկի անվան հ.122 հիմնական դպրոց» ՊՈԱԿ, Արզումանյան 5",
    "marz": "Երևան",
    "community": "Աջափնյակ",
    "source": "elections.am/AccessibilityMap",
    "fetchedAt": "2026-06-02T09:44:57.200Z"
  },
  "6/49": {
    "precinct": "6/49",
    "lat": 40.190158,
    "lng": 44.47744,
    "station": "«Երևանի  հ․ 38  մսուր-մանկապարտեզ» ՀՈԱԿ, Քըրք Քըրքորյան 4Ա (Լենինգրադյան 4Ա)",
    "marz": "Երևան",
    "community": "Աջափնյակ",
    "source": "elections.am/AccessibilityMap",
    "fetchedAt": "2026-06-02T09:44:57.200Z"
  },
  "6/50": {
    "precinct": "6/50",
    "lat": 40.192743,
    "lng": 44.476043,
    "station": "«Երևանի Ալեքսանդր Բլոկի անվան հ.122 հիմնական դպրոց» ՊՈԱԿ, Արզումանյան 5",
    "marz": "Երևան",
    "community": "Աջափնյակ",
    "source": "elections.am/AccessibilityMap",
    "fetchedAt": "2026-06-02T09:44:57.200Z"
  },
  "6/51": {
    "precinct": "6/51",
    "lat": 40.193375,
    "lng": 44.4763,
    "station": "«Ա․Երզնկյանի  անվան հ․118 ավագ դպրոց» ՊՈԱԿ, Արզումանյան 8",
    "marz": "Երևան",
    "community": "Աջափնյակ",
    "source": "elections.am/AccessibilityMap",
    "fetchedAt": "2026-06-02T09:44:57.200Z"
  },
  "6/52": {
    "precinct": "6/52",
    "lat": 40.193375,
    "lng": 44.4763,
    "station": "«Ա․Երզնկյանի  անվան հ․118 ավագ դպրոց» ՊՈԱԿ, Արզումանյան 8",
    "marz": "Երևան",
    "community": "Աջափնյակ",
    "source": "elections.am/AccessibilityMap",
    "fetchedAt": "2026-06-02T09:44:57.200Z"
  },
  "7/1": {
    "precinct": "7/1",
    "lat": 40.162142,
    "lng": 44.432233,
    "station": "Թիվ 85 մանկապարտեզ , Իսակով 50/6",
    "marz": "Երևան",
    "community": "Մալաթիա-Սեբաստիա",
    "source": "elections.am/AccessibilityMap",
    "fetchedAt": "2026-06-02T09:44:57.200Z"
  },
  "7/2": {
    "precinct": "7/2",
    "lat": 40.16343902,
    "lng": 44.44382928,
    "station": "Թիվ 78 մանկապարտեզ , Բաբաջանյան 139",
    "marz": "Երևան",
    "community": "Մալաթիա-Սեբաստիա",
    "source": "elections.am/AccessibilityMap",
    "fetchedAt": "2026-06-02T09:44:57.200Z"
  },
  "7/3": {
    "precinct": "7/3",
    "lat": 40.1634278,
    "lng": 44.44384734,
    "station": "Թիվ 78 մանկապարտեզ, Բաբաջանյան 139",
    "marz": "Երևան",
    "community": "Մալաթիա-Սեբաստիա",
    "source": "elections.am/AccessibilityMap",
    "fetchedAt": "2026-06-02T09:44:57.200Z"
  },
  "7/4": {
    "precinct": "7/4",
    "lat": 40.1630785,
    "lng": 44.44732499,
    "station": "Թիվ 77 մանկապարտեզ, Բաբաջանյան 145/5",
    "marz": "Երևան",
    "community": "Մալաթիա-Սեբաստիա",
    "source": "elections.am/AccessibilityMap",
    "fetchedAt": "2026-06-02T09:44:57.200Z"
  },
  "7/5": {
    "precinct": "7/5",
    "lat": 40.165192,
    "lng": 44.446408,
    "station": "Թիվ 11 դպրոց , Անդրանիկի փողոց, 133 շենք",
    "marz": "Երևան",
    "community": "Մալաթիա-Սեբաստիա",
    "source": "elections.am/AccessibilityMap",
    "fetchedAt": "2026-06-02T09:44:57.200Z"
  },
  "7/6": {
    "precinct": "7/6",
    "lat": 40.165192,
    "lng": 44.446408,
    "station": "Թիվ 11 դպրոց , Անդրանիկի փողոց, 133 շենք",
    "marz": "Երևան",
    "community": "Մալաթիա-Սեբաստիա",
    "source": "elections.am/AccessibilityMap",
    "fetchedAt": "2026-06-02T09:44:57.200Z"
  },
  "7/7": {
    "precinct": "7/7",
    "lat": 40.164068,
    "lng": 44.445458,
    "station": "Թիվ 190 դպրոց, Բաբաջանյան  133/3",
    "marz": "Երևան",
    "community": "Մալաթիա-Սեբաստիա",
    "source": "elections.am/AccessibilityMap",
    "fetchedAt": "2026-06-02T09:44:57.200Z"
  },
  "7/8": {
    "precinct": "7/8",
    "lat": 40.164068,
    "lng": 44.445458,
    "station": "Թիվ 190 դպրոց, Բաբաջանյան  133/3",
    "marz": "Երևան",
    "community": "Մալաթիա-Սեբաստիա",
    "source": "elections.am/AccessibilityMap",
    "fetchedAt": "2026-06-02T09:44:57.200Z"
  },
  "7/9": {
    "precinct": "7/9",
    "lat": 40.178271,
    "lng": 44.44373,
    "station": "Թիվ 79 մանկապարտեզ, Շերամ 65/2",
    "marz": "Երևան",
    "community": "Մալաթիա-Սեբաստիա",
    "source": "elections.am/AccessibilityMap",
    "fetchedAt": "2026-06-02T09:44:57.200Z"
  },
  "7/10": {
    "precinct": "7/10",
    "lat": 40.184466,
    "lng": 44.446849,
    "station": "Թիվ 84 մանկապարտեզ , Շերամ 15",
    "marz": "Երևան",
    "community": "Մալաթիա-Սեբաստիա",
    "source": "elections.am/AccessibilityMap",
    "fetchedAt": "2026-06-02T09:44:57.200Z"
  },
  "7/11": {
    "precinct": "7/11",
    "lat": 40.184466,
    "lng": 44.446849,
    "station": "Թիվ 84 մանկապարտեզ, Շերամ 15",
    "marz": "Երևան",
    "community": "Մալաթիա-Սեբաստիա",
    "source": "elections.am/AccessibilityMap",
    "fetchedAt": "2026-06-02T09:44:57.200Z"
  },
  "7/12": {
    "precinct": "7/12",
    "lat": 40.176798,
    "lng": 44.441751,
    "station": "Թիվ 184 դպրոց, Շերամի 103/3",
    "marz": "Երևան",
    "community": "Մալաթիա-Սեբաստիա",
    "source": "elections.am/AccessibilityMap",
    "fetchedAt": "2026-06-02T09:44:57.200Z"
  },
  "7/13": {
    "precinct": "7/13",
    "lat": 40.175927,
    "lng": 44.442718,
    "station": "Թիվ 174 դպրոց , Սվաճյան  42",
    "marz": "Երևան",
    "community": "Մալաթիա-Սեբաստիա",
    "source": "elections.am/AccessibilityMap",
    "fetchedAt": "2026-06-02T09:44:57.200Z"
  },
  "7/14": {
    "precinct": "7/14",
    "lat": 40.177397,
    "lng": 44.44371,
    "station": "Թիվ 176 դպրոց, Հովնաթանի 33",
    "marz": "Երևան",
    "community": "Մալաթիա-Սեբաստիա",
    "source": "elections.am/AccessibilityMap",
    "fetchedAt": "2026-06-02T09:44:57.200Z"
  },
  "7/15": {
    "precinct": "7/15",
    "lat": 40.186915,
    "lng": 44.42466,
    "station": "Թիվ 80 մանկապարտեզ, Հաղթանակ 6Փ 34",
    "marz": "Երևան",
    "community": "Մալաթիա-Սեբաստիա",
    "source": "elections.am/AccessibilityMap",
    "fetchedAt": "2026-06-02T09:44:57.200Z"
  },
  "7/16": {
    "precinct": "7/16",
    "lat": 40.18740834,
    "lng": 44.4270773,
    "station": "Գյուղխորհուրդ , Հաղթանակ 6Փ 19",
    "marz": "Երևան",
    "community": "Մալաթիա-Սեբաստիա",
    "source": "elections.am/AccessibilityMap",
    "fetchedAt": "2026-06-02T09:44:57.200Z"
  },
  "7/17": {
    "precinct": "7/17",
    "lat": 40.184945,
    "lng": 44.420784,
    "station": "Թիվ 113 դպրոց , Հաղթանակ 6Փ 51",
    "marz": "Երևան",
    "community": "Մալաթիա-Սեբաստիա",
    "source": "elections.am/AccessibilityMap",
    "fetchedAt": "2026-06-02T09:44:57.200Z"
  },
  "7/18": {
    "precinct": "7/18",
    "lat": 40.190152,
    "lng": 44.419143,
    "station": "Թիվ 86 մանկապարտեզ, Հաղթանակի 12 Փ.  32",
    "marz": "Երևան",
    "community": "Մալաթիա-Սեբաստիա",
    "source": "elections.am/AccessibilityMap",
    "fetchedAt": "2026-06-02T09:44:57.200Z"
  },
  "7/19": {
    "precinct": "7/19",
    "lat": 40.183345,
    "lng": 44.446168,
    "station": "Թիվ 162 դպրոց, Անդրանիկի 4",
    "marz": "Երևան",
    "community": "Մալաթիա-Սեբաստիա",
    "source": "elections.am/AccessibilityMap",
    "fetchedAt": "2026-06-02T09:44:57.200Z"
  },
  "7/20": {
    "precinct": "7/20",
    "lat": 40.183345,
    "lng": 44.446168,
    "station": "Թիվ 162 դպրոց , Անդրանիկի 4",
    "marz": "Երևան",
    "community": "Մալաթիա-Սեբաստիա",
    "source": "elections.am/AccessibilityMap",
    "fetchedAt": "2026-06-02T09:44:57.200Z"
  },
  "7/21": {
    "precinct": "7/21",
    "lat": 40.182011,
    "lng": 44.444939,
    "station": "Թիվ 89 մանկապարտեզ, Օհանովի 45",
    "marz": "Երևան",
    "community": "Մալաթիա-Սեբաստիա",
    "source": "elections.am/AccessibilityMap",
    "fetchedAt": "2026-06-02T09:44:57.200Z"
  },
  "7/22": {
    "precinct": "7/22",
    "lat": 40.182011,
    "lng": 44.444939,
    "station": "Թիվ 89 մանկապարտեզ, Օհանովի 45",
    "marz": "Երևան",
    "community": "Մալաթիա-Սեբաստիա",
    "source": "elections.am/AccessibilityMap",
    "fetchedAt": "2026-06-02T09:44:57.200Z"
  },
  "7/23": {
    "precinct": "7/23",
    "lat": 40.178628,
    "lng": 44.457684,
    "station": "Թիվ 92 դպրոց, Սեբաստիա 54 ",
    "marz": "Երևան",
    "community": "Մալաթիա-Սեբաստիա",
    "source": "elections.am/AccessibilityMap",
    "fetchedAt": "2026-06-02T09:44:57.200Z"
  },
  "7/24": {
    "precinct": "7/24",
    "lat": 40.178628,
    "lng": 44.457684,
    "station": "Թիվ 92 դպրոց, Սեբաստիա 54 ",
    "marz": "Երևան",
    "community": "Մալաթիա-Սեբաստիա",
    "source": "elections.am/AccessibilityMap",
    "fetchedAt": "2026-06-02T09:44:57.200Z"
  },
  "7/25": {
    "precinct": "7/25",
    "lat": 40.185327,
    "lng": 44.454319,
    "station": "Թիվ 121 դպրոց , Տիչինայի  փողոց 2-րդ նրբանցք, 121 շենք",
    "marz": "Երևան",
    "community": "Մալաթիա-Սեբաստիա",
    "source": "elections.am/AccessibilityMap",
    "fetchedAt": "2026-06-02T09:44:57.200Z"
  },
  "7/26": {
    "precinct": "7/26",
    "lat": 40.185327,
    "lng": 44.454319,
    "station": "Թիվ 121 դպրոց, Տիչինայի  փողոց 2-րդ նրբանցք, 121 շենք",
    "marz": "Երևան",
    "community": "Մալաթիա-Սեբաստիա",
    "source": "elections.am/AccessibilityMap",
    "fetchedAt": "2026-06-02T09:44:57.200Z"
  },
  "7/27": {
    "precinct": "7/27",
    "lat": 40.185327,
    "lng": 44.454319,
    "station": "Թիվ 121 դպրոց, Տիչինայի  փողոց 2-րդ նրբանցք, 121 շենք",
    "marz": "Երևան",
    "community": "Մալաթիա-Սեբաստիա",
    "source": "elections.am/AccessibilityMap",
    "fetchedAt": "2026-06-02T09:44:57.200Z"
  },
  "7/28": {
    "precinct": "7/28",
    "lat": 40.185722,
    "lng": 44.462174,
    "station": "Թիվ 89 դպրոց, Սեբաստիա 19",
    "marz": "Երևան",
    "community": "Մալաթիա-Սեբաստիա",
    "source": "elections.am/AccessibilityMap",
    "fetchedAt": "2026-06-02T09:44:57.200Z"
  },
  "7/29": {
    "precinct": "7/29",
    "lat": 40.185722,
    "lng": 44.462174,
    "station": "Թիվ 89 դպրոց, Սեբաստիա 19",
    "marz": "Երևան",
    "community": "Մալաթիա-Սեբաստիա",
    "source": "elections.am/AccessibilityMap",
    "fetchedAt": "2026-06-02T09:44:57.200Z"
  },
  "7/30": {
    "precinct": "7/30",
    "lat": 40.168233,
    "lng": 44.466027,
    "station": "Թիվ 152 դպրոց, Արարատյան 1-ին զանգված  Կուրղինյան փողոց, 9շենք",
    "marz": "Երևան",
    "community": "Մալաթիա-Սեբաստիա",
    "source": "elections.am/AccessibilityMap",
    "fetchedAt": "2026-06-02T09:44:57.200Z"
  },
  "7/31": {
    "precinct": "7/31",
    "lat": 40.168233,
    "lng": 44.466027,
    "station": "Թիվ 152 դպրոց, Արարատյան 1-ին զանգված  Կուրղինյան փողոց, 9շենք ",
    "marz": "Երևան",
    "community": "Մալաթիա-Սեբաստիա",
    "source": "elections.am/AccessibilityMap",
    "fetchedAt": "2026-06-02T09:44:57.200Z"
  },
  "7/32": {
    "precinct": "7/32",
    "lat": 40.170582,
    "lng": 44.466707,
    "station": "Թիվ  81 մանկապարտեզ, Արարատյան 1 զ. Կուրղինյան 11/5",
    "marz": "Երևան",
    "community": "Մալաթիա-Սեբաստիա",
    "source": "elections.am/AccessibilityMap",
    "fetchedAt": "2026-06-02T09:44:57.200Z"
  },
  "7/33": {
    "precinct": "7/33",
    "lat": 40.170582,
    "lng": 44.466707,
    "station": "Թիվ 81 մանկապարտեզ, Արարատյան 1 զ. Կուրղինյան 11/5",
    "marz": "Երևան",
    "community": "Մալաթիա-Սեբաստիա",
    "source": "elections.am/AccessibilityMap",
    "fetchedAt": "2026-06-02T09:44:57.200Z"
  },
  "7/34": {
    "precinct": "7/34",
    "lat": 40.172708,
    "lng": 44.459409,
    "station": "Թիվ 90 դպրոց, Վանտյան 43  ",
    "marz": "Երևան",
    "community": "Մալաթիա-Սեբաստիա",
    "source": "elections.am/AccessibilityMap",
    "fetchedAt": "2026-06-02T09:44:57.200Z"
  },
  "7/35": {
    "precinct": "7/35",
    "lat": 40.172708,
    "lng": 44.459409,
    "station": "Թիվ 90 դպրոց, Վանտյան 43  ",
    "marz": "Երևան",
    "community": "Մալաթիա-Սեբաստիա",
    "source": "elections.am/AccessibilityMap",
    "fetchedAt": "2026-06-02T09:44:57.200Z"
  },
  "7/36": {
    "precinct": "7/36",
    "lat": 40.172537,
    "lng": 44.458258,
    "station": "Մալաթիա-Սեբաստիա վարչական շրջանի համալիր սոցիալական ծառայություն-ների տարածքային կենտրոն, Բատիկյան փ.  99 շենք ",
    "marz": "Երևան",
    "community": "Մալաթիա-Սեբաստիա",
    "source": "elections.am/AccessibilityMap",
    "fetchedAt": "2026-06-02T09:44:57.200Z"
  },
  "7/37": {
    "precinct": "7/37",
    "lat": 40.178115,
    "lng": 44.451688,
    "station": "Թիվ 179 դպրոց, Օհանով  72",
    "marz": "Երևան",
    "community": "Մալաթիա-Սեբաստիա",
    "source": "elections.am/AccessibilityMap",
    "fetchedAt": "2026-06-02T09:44:57.200Z"
  },
  "7/38": {
    "precinct": "7/38",
    "lat": 40.178115,
    "lng": 44.451688,
    "station": "Թիվ 179 դպրոց Օհանով  72",
    "marz": "Երևան",
    "community": "Մալաթիա-Սեբաստիա",
    "source": "elections.am/AccessibilityMap",
    "fetchedAt": "2026-06-02T09:44:57.200Z"
  },
  "7/39": {
    "precinct": "7/39",
    "lat": 40.175813,
    "lng": 44.441133,
    "station": "Թիվ 97 մանկապարտեզ, Սվաճյան 16",
    "marz": "Երևան",
    "community": "Մալաթիա-Սեբաստիա",
    "source": "elections.am/AccessibilityMap",
    "fetchedAt": "2026-06-02T09:44:57.200Z"
  },
  "7/40": {
    "precinct": "7/40",
    "lat": 40.175813,
    "lng": 44.441133,
    "station": "Թիվ 97 մանկապարտեզ, Սվաճյան 16",
    "marz": "Երևան",
    "community": "Մալաթիա-Սեբաստիա",
    "source": "elections.am/AccessibilityMap",
    "fetchedAt": "2026-06-02T09:44:57.200Z"
  },
  "7/41": {
    "precinct": "7/41",
    "lat": 40.170787,
    "lng": 44.435288,
    "station": "Բ 4 դպրոց – պարտեզ, Բաբաջանյան 38/1",
    "marz": "Երևան",
    "community": "Մալաթիա-Սեբաստիա",
    "source": "elections.am/AccessibilityMap",
    "fetchedAt": "2026-06-02T09:44:57.200Z"
  },
  "7/42": {
    "precinct": "7/42",
    "lat": 40.170787,
    "lng": 44.435288,
    "station": "Բ 4 դպրոց – պարտեզ, Բաբաջանյան 38/1",
    "marz": "Երևան",
    "community": "Մալաթիա-Սեբաստիա",
    "source": "elections.am/AccessibilityMap",
    "fetchedAt": "2026-06-02T09:44:57.200Z"
  },
  "7/43": {
    "precinct": "7/43",
    "lat": 40.169428,
    "lng": 44.439514,
    "station": "Մ.Սեբաստացի կրթահամալիր, Բաբաջանյան 25",
    "marz": "Երևան",
    "community": "Մալաթիա-Սեբաստիա",
    "source": "elections.am/AccessibilityMap",
    "fetchedAt": "2026-06-02T09:44:57.200Z"
  },
  "7/44": {
    "precinct": "7/44",
    "lat": 40.169428,
    "lng": 44.439514,
    "station": "Մ.Սեբաստացի կրթահամալիր, Բաբաջանյան 25",
    "marz": "Երևան",
    "community": "Մալաթիա-Սեբաստիա",
    "source": "elections.am/AccessibilityMap",
    "fetchedAt": "2026-06-02T09:44:57.200Z"
  },
  "7/45": {
    "precinct": "7/45",
    "lat": 40.169485,
    "lng": 44.440855,
    "station": "Թիվ 181 դպրոց, Բաբաջանյան 4",
    "marz": "Երևան",
    "community": "Մալաթիա-Սեբաստիա",
    "source": "elections.am/AccessibilityMap",
    "fetchedAt": "2026-06-02T09:44:57.200Z"
  },
  "7/46": {
    "precinct": "7/46",
    "lat": 40.16909637,
    "lng": 44.44370437,
    "station": "Թիվ 95 մանկապարտեզ, Անդրանիկի  124",
    "marz": "Երևան",
    "community": "Մալաթիա-Սեբաստիա",
    "source": "elections.am/AccessibilityMap",
    "fetchedAt": "2026-06-02T09:44:57.200Z"
  },
  "7/47": {
    "precinct": "7/47",
    "lat": 40.16909637,
    "lng": 44.44370437,
    "station": "Թիվ 95 մանկապարտեզ, Անդրանիկի փողոց  92/1 շենք ",
    "marz": "Երևան",
    "community": "Մալաթիա-Սեբաստիա",
    "source": "elections.am/AccessibilityMap",
    "fetchedAt": "2026-06-02T09:44:57.200Z"
  },
  "7/48": {
    "precinct": "7/48",
    "lat": 40.17177979,
    "lng": 44.44060646,
    "station": "Թիվ 76 մանկապարտեզ,  Րաֆֆու 85/5",
    "marz": "Երևան",
    "community": "Մալաթիա-Սեբաստիա",
    "source": "elections.am/AccessibilityMap",
    "fetchedAt": "2026-06-02T09:44:57.200Z"
  },
  "7/49": {
    "precinct": "7/49",
    "lat": 40.16909637,
    "lng": 44.44370437,
    "station": "Թիվ 95 մանկապարտեզ, Անդրանիկի  124  ",
    "marz": "Երևան",
    "community": "Մալաթիա-Սեբաստիա",
    "source": "elections.am/AccessibilityMap",
    "fetchedAt": "2026-06-02T09:44:57.200Z"
  },
  "7/50": {
    "precinct": "7/50",
    "lat": 40.17282761,
    "lng": 44.44495708,
    "station": "Գեղագիտ. Կենտրոն, Անդրանիկի 54",
    "marz": "Երևան",
    "community": "Մալաթիա-Սեբաստիա",
    "source": "elections.am/AccessibilityMap",
    "fetchedAt": "2026-06-02T09:44:57.200Z"
  },
  "7/51": {
    "precinct": "7/51",
    "lat": 40.1723,
    "lng": 44.447662,
    "station": "Թիվ 191 դպրոց, Անդրանիկի 83",
    "marz": "Երևան",
    "community": "Մալաթիա-Սեբաստիա",
    "source": "elections.am/AccessibilityMap",
    "fetchedAt": "2026-06-02T09:44:57.200Z"
  },
  "7/52": {
    "precinct": "7/52",
    "lat": 40.1723,
    "lng": 44.447662,
    "station": "Թիվ 191 դպրոց, Անդրանիկի 83",
    "marz": "Երևան",
    "community": "Մալաթիա-Սեբաստիա",
    "source": "elections.am/AccessibilityMap",
    "fetchedAt": "2026-06-02T09:44:57.200Z"
  },
  "7/53": {
    "precinct": "7/53",
    "lat": 40.171164,
    "lng": 44.447705,
    "station": "Թիվ 96 մանկապարտեզ, Անդրանիկի 97/1 ",
    "marz": "Երևան",
    "community": "Մալաթիա-Սեբաստիա",
    "source": "elections.am/AccessibilityMap",
    "fetchedAt": "2026-06-02T09:44:57.200Z"
  },
  "7/54": {
    "precinct": "7/54",
    "lat": 40.17047771,
    "lng": 44.44753346,
    "station": "Թիվ 83 մանկապարտեզ, Անդրանիկի 97",
    "marz": "Երևան",
    "community": "Մալաթիա-Սեբաստիա",
    "source": "elections.am/AccessibilityMap",
    "fetchedAt": "2026-06-02T09:44:57.200Z"
  },
  "7/55": {
    "precinct": "7/55",
    "lat": 40.171249,
    "lng": 44.455231,
    "station": "Թիվ 112 դպրոց, Սեբաստիա 84 Ա",
    "marz": "Երևան",
    "community": "Մալաթիա-Սեբաստիա",
    "source": "elections.am/AccessibilityMap",
    "fetchedAt": "2026-06-02T09:44:57.200Z"
  },
  "7/56": {
    "precinct": "7/56",
    "lat": 40.171249,
    "lng": 44.455231,
    "station": "Թիվ 112 դպրոց. Սեբաստիա 84 Ա",
    "marz": "Երևան",
    "community": "Մալաթիա-Սեբաստիա",
    "source": "elections.am/AccessibilityMap",
    "fetchedAt": "2026-06-02T09:44:57.200Z"
  },
  "7/57": {
    "precinct": "7/57",
    "lat": 40.16657,
    "lng": 44.453888,
    "station": "Թիվ 91 դպրոց, Ծերենցի 72 Ա",
    "marz": "Երևան",
    "community": "Մալաթիա-Սեբաստիա",
    "source": "elections.am/AccessibilityMap",
    "fetchedAt": "2026-06-02T09:44:57.200Z"
  },
  "7/58": {
    "precinct": "7/58",
    "lat": 40.16657,
    "lng": 44.453888,
    "station": "Թիվ 91 դպրոց, Ծերենցի 72 Ա",
    "marz": "Երևան",
    "community": "Մալաթիա-Սեբաստիա",
    "source": "elections.am/AccessibilityMap",
    "fetchedAt": "2026-06-02T09:44:57.200Z"
  },
  "7/59": {
    "precinct": "7/59",
    "lat": 40.16657,
    "lng": 44.453888,
    "station": "Թիվ 91 դպրոց, Ծերենցի 72 Ա",
    "marz": "Երևան",
    "community": "Մալաթիա-Սեբաստիա",
    "source": "elections.am/AccessibilityMap",
    "fetchedAt": "2026-06-02T09:44:57.200Z"
  },
  "7/60": {
    "precinct": "7/60",
    "lat": 40.169304,
    "lng": 44.465999,
    "station": "Թիվ 116 դպրոց, Արարատյան 2-րդ զանգված, Կուրղինյան փողոց․ նրբացք, 1շենք",
    "marz": "Երևան",
    "community": "Մալաթիա-Սեբաստիա",
    "source": "elections.am/AccessibilityMap",
    "fetchedAt": "2026-06-02T09:44:57.200Z"
  },
  "8/1": {
    "precinct": "8/1",
    "lat": 40.15731,
    "lng": 44.502309,
    "station": "Երևանի Փ. Թերլեմեզյանի անվան գեղարվեստի պետական քոլեջ ՊՈԱԿ, Արշակունյաց 39 ",
    "marz": "Երևան",
    "community": "Շենգավիթ",
    "source": "elections.am/AccessibilityMap",
    "fetchedAt": "2026-06-02T09:44:57.200Z"
  },
  "8/2": {
    "precinct": "8/2",
    "lat": 40.152721,
    "lng": 44.500848,
    "station": "«Երևանի Հ. Թումանյանի անվան հ. 32 հիմնական դպրոց» ՊՈԱԿ, Սևանի 132 ",
    "marz": "Երևան",
    "community": "Շենգավիթ",
    "source": "elections.am/AccessibilityMap",
    "fetchedAt": "2026-06-02T09:44:57.200Z"
  },
  "8/3": {
    "precinct": "8/3",
    "lat": 40.15292159,
    "lng": 44.50022081,
    "station": "«Փոքրիկ Իշխան» կրթահամալիր, Սևանի 132 ",
    "marz": "Երևան",
    "community": "Շենգավիթ",
    "source": "elections.am/AccessibilityMap",
    "fetchedAt": "2026-06-02T09:44:57.200Z"
  },
  "8/4": {
    "precinct": "8/4",
    "lat": 40.151356,
    "lng": 44.492677,
    "station": "«Երևանի Վ. Բելինսկու անվան հ.38 հիմնական դպրոց» ՊՈԱԿ, Գ.Նժդեհի 22",
    "marz": "Երևան",
    "community": "Շենգավիթ",
    "source": "elections.am/AccessibilityMap",
    "fetchedAt": "2026-06-02T09:44:57.200Z"
  },
  "8/5": {
    "precinct": "8/5",
    "lat": 40.151356,
    "lng": 44.492677,
    "station": "«Երևանի Վ. Բելինսկու անվան հ.38 հիմնական դպրոց» ՊՈԱԿ, Գ.Նժդեհի 22",
    "marz": "Երևան",
    "community": "Շենգավիթ",
    "source": "elections.am/AccessibilityMap",
    "fetchedAt": "2026-06-02T09:44:57.200Z"
  },
  "8/6": {
    "precinct": "8/6",
    "lat": 40.149959,
    "lng": 44.495373,
    "station": "«Երևանի Ջ. Դունայանցի անվան հ.154 հիմնական դպրոց» ՊՈԱԿ, Ֆրունզեի 4",
    "marz": "Երևան",
    "community": "Շենգավիթ",
    "source": "elections.am/AccessibilityMap",
    "fetchedAt": "2026-06-02T09:44:57.200Z"
  },
  "8/7": {
    "precinct": "8/7",
    "lat": 40.149959,
    "lng": 44.495373,
    "station": "«Երևանի Ջ. Դունայանցի անվան հ.154 հիմնական դպրոց» ՊՈԱԿ, Ֆրունզեի 4",
    "marz": "Երևան",
    "community": "Շենգավիթ",
    "source": "elections.am/AccessibilityMap",
    "fetchedAt": "2026-06-02T09:44:57.200Z"
  },
  "8/8": {
    "precinct": "8/8",
    "lat": 40.146419,
    "lng": 44.494686,
    "station": "«Երևանի Լեոյի անվան հ. 65 ավագ դպրոց» ՊՈԱԿ, Ֆրունզեի 56",
    "marz": "Երևան",
    "community": "Շենգավիթ",
    "source": "elections.am/AccessibilityMap",
    "fetchedAt": "2026-06-02T09:44:57.200Z"
  },
  "8/9": {
    "precinct": "8/9",
    "lat": 40.146419,
    "lng": 44.494686,
    "station": "«Երևանի Լեոյի անվան հ. 65 ավագ դպրոց» ՊՈԱԿ, Ֆրունզեի 56",
    "marz": "Երևան",
    "community": "Շենգավիթ",
    "source": "elections.am/AccessibilityMap",
    "fetchedAt": "2026-06-02T09:44:57.200Z"
  },
  "8/10": {
    "precinct": "8/10",
    "lat": 40.145658,
    "lng": 44.491644,
    "station": "«Երևանի Մ. Սարյանի անվան հ.86 հիմնական դպրոց» ՊՈԱԿ, Բագրատունյաց 45 ",
    "marz": "Երևան",
    "community": "Շենգավիթ",
    "source": "elections.am/AccessibilityMap",
    "fetchedAt": "2026-06-02T09:44:57.200Z"
  },
  "8/11": {
    "precinct": "8/11",
    "lat": 40.145658,
    "lng": 44.491644,
    "station": "«Երևանի Մ. Սարյանի անվան հ.86 հիմնական դպրոց» ՊՈԱԿ, Բագրատունյաց 45",
    "marz": "Երևան",
    "community": "Շենգավիթ",
    "source": "elections.am/AccessibilityMap",
    "fetchedAt": "2026-06-02T09:44:57.200Z"
  },
  "8/12": {
    "precinct": "8/12",
    "lat": 40.150117,
    "lng": 44.486552,
    "station": "«Երևանի Հ. Ավետիսյանի անվան հ.74 հիմնական դպրոց» ՊՈԱԿ, Բագրատունյաց 23",
    "marz": "Երևան",
    "community": "Շենգավիթ",
    "source": "elections.am/AccessibilityMap",
    "fetchedAt": "2026-06-02T09:44:57.200Z"
  },
  "8/13": {
    "precinct": "8/13",
    "lat": 40.1519,
    "lng": 44.488999,
    "station": "«Երևանի Վ. Համբարձումյանի անվան հ.12 հիմնական դպրոց» ՊՈԱԿ, Գ.Նժդեհ 11",
    "marz": "Երևան",
    "community": "Շենգավիթ",
    "source": "elections.am/AccessibilityMap",
    "fetchedAt": "2026-06-02T09:44:57.200Z"
  },
  "8/14": {
    "precinct": "8/14",
    "lat": 40.1519,
    "lng": 44.488999,
    "station": "«Երևանի Վ. Համբարձումյանի անվան հ.12 հիմնական դպրոց» ՊՈԱԿ, Գ.Նժդեհ 11",
    "marz": "Երևան",
    "community": "Շենգավիթ",
    "source": "elections.am/AccessibilityMap",
    "fetchedAt": "2026-06-02T09:44:57.200Z"
  },
  "8/15": {
    "precinct": "8/15",
    "lat": 40.154729,
    "lng": 44.491362,
    "station": "«Երևանի հ. 144 հիմնական դպրոց» ՊՈԱԿ, Վ.Շենգավիթ 2փ., 9 ",
    "marz": "Երևան",
    "community": "Շենգավիթ",
    "source": "elections.am/AccessibilityMap",
    "fetchedAt": "2026-06-02T09:44:57.200Z"
  },
  "8/16": {
    "precinct": "8/16",
    "lat": 40.154729,
    "lng": 44.491362,
    "station": "«Երևանի հ. 144 հիմնական դպրոց» ՊՈԱԿ, Վ.Շենգավիթ 2 փ., 9 ",
    "marz": "Երևան",
    "community": "Շենգավիթ",
    "source": "elections.am/AccessibilityMap",
    "fetchedAt": "2026-06-02T09:44:57.200Z"
  },
  "8/17": {
    "precinct": "8/17",
    "lat": 40.156657,
    "lng": 44.489865,
    "station": "Երևանի հ. 137 մանկապարտեզ, Պատկանյան 20 ",
    "marz": "Երևան",
    "community": "Շենգավիթ",
    "source": "elections.am/AccessibilityMap",
    "fetchedAt": "2026-06-02T09:44:57.200Z"
  },
  "8/18": {
    "precinct": "8/18",
    "lat": 40.154946,
    "lng": 44.487854,
    "station": "«Երևանի հ. 46 ավագ դպրոց» ՊՈԱԿ, Մանանդյան 2 ",
    "marz": "Երևան",
    "community": "Շենգավիթ",
    "source": "elections.am/AccessibilityMap",
    "fetchedAt": "2026-06-02T09:44:57.200Z"
  },
  "8/19": {
    "precinct": "8/19",
    "lat": 40.154946,
    "lng": 44.487854,
    "station": "«Երևանի հ. 46 ավագ դպրոց» ՊՈԱԿ, Մանանդյան 2 ",
    "marz": "Երևան",
    "community": "Շենգավիթ",
    "source": "elections.am/AccessibilityMap",
    "fetchedAt": "2026-06-02T09:44:57.200Z"
  },
  "8/20": {
    "precinct": "8/20",
    "lat": 40.155837,
    "lng": 44.484973,
    "station": "Երևանի հ. 143 մանկապարտեզ,  Չեխովի 100 ",
    "marz": "Երևան",
    "community": "Շենգավիթ",
    "source": "elections.am/AccessibilityMap",
    "fetchedAt": "2026-06-02T09:44:57.200Z"
  },
  "8/21": {
    "precinct": "8/21",
    "lat": 40.157322,
    "lng": 44.482687,
    "station": "«Երևանի հ. 50 հիմնական դպրոց» ՊՈԱԿ, Շևչենկոյի 34/1",
    "marz": "Երևան",
    "community": "Շենգավիթ",
    "source": "elections.am/AccessibilityMap",
    "fetchedAt": "2026-06-02T09:44:57.200Z"
  },
  "8/22": {
    "precinct": "8/22",
    "lat": 40.157322,
    "lng": 44.482687,
    "station": "«Երևանի հ. 50 հիմնական դպրոց» ՊՈԱԿ, Շևչենկոյի 34/1 ",
    "marz": "Երևան",
    "community": "Շենգավիթ",
    "source": "elections.am/AccessibilityMap",
    "fetchedAt": "2026-06-02T09:44:57.200Z"
  },
  "8/23": {
    "precinct": "8/23",
    "lat": 40.154372,
    "lng": 44.480419,
    "station": "«Երևանի Ա. Մյասնիկյանի անվան հ. 66 հիմնական դպրոց» ՊՈԱԿ, Բագրատունյաց 9 ",
    "marz": "Երևան",
    "community": "Շենգավիթ",
    "source": "elections.am/AccessibilityMap",
    "fetchedAt": "2026-06-02T09:44:57.200Z"
  },
  "8/32": {
    "precinct": "8/32",
    "lat": 40.144574,
    "lng": 44.485139,
    "station": "«Երևանի հ. 110 հիմնական դպրոց» ՊՈԱԿ, Ս. Տարոնցու 11",
    "marz": "Երևան",
    "community": "Շենգավիթ",
    "source": "elections.am/AccessibilityMap",
    "fetchedAt": "2026-06-02T09:44:57.200Z"
  },
  "8/33": {
    "precinct": "8/33",
    "lat": 40.144574,
    "lng": 44.485139,
    "station": "«Երևանի հ. 110 հիմնական դպրոց» ՊՈԱԿ, Ս. Տարոնցու 11",
    "marz": "Երևան",
    "community": "Շենգավիթ",
    "source": "elections.am/AccessibilityMap",
    "fetchedAt": "2026-06-02T09:44:57.200Z"
  },
  "8/34": {
    "precinct": "8/34",
    "lat": 40.143556,
    "lng": 44.483729,
    "station": "Երևանի հ. 139 մանկապարտեզ, Ս.Տարոնցու 28",
    "marz": "Երևան",
    "community": "Շենգավիթ",
    "source": "elections.am/AccessibilityMap",
    "fetchedAt": "2026-06-02T09:44:57.200Z"
  },
  "8/35": {
    "precinct": "8/35",
    "lat": 40.143556,
    "lng": 44.483729,
    "station": "Երևանի հ. 139 մանկապարտեզ, Ս. Տարոնցու 28",
    "marz": "Երևան",
    "community": "Շենգավիթ",
    "source": "elections.am/AccessibilityMap",
    "fetchedAt": "2026-06-02T09:44:57.200Z"
  },
  "8/36": {
    "precinct": "8/36",
    "lat": 40.14275,
    "lng": 44.48492,
    "station": "«Երևանի Գ. Նարեկացու անվան հ. 137 հիմնական դպրոց» ՊՈԱԿ,  Ս. Տարոնցու 17 ",
    "marz": "Երևան",
    "community": "Շենգավիթ",
    "source": "elections.am/AccessibilityMap",
    "fetchedAt": "2026-06-02T09:44:57.200Z"
  },
  "8/37": {
    "precinct": "8/37",
    "lat": 40.13824,
    "lng": 44.482251,
    "station": "Երևանի հ. 144 մանկապարտեզ, Վահրամ Արիստակեսյան փողոց  /Ն. Շենգավիթի 11 փ./ 35/3",
    "marz": "Երևան",
    "community": "Շենգավիթ",
    "source": "elections.am/AccessibilityMap",
    "fetchedAt": "2026-06-02T09:44:57.200Z"
  },
  "8/38": {
    "precinct": "8/38",
    "lat": 40.13824,
    "lng": 44.482251,
    "station": "Երևանի հ.144 մանկապարտեզ, Վահրամ Արիստակեսյան փողոց  /Ն. Շենգավիթի 11 փ./ 35/3",
    "marz": "Երևան",
    "community": "Շենգավիթ",
    "source": "elections.am/AccessibilityMap",
    "fetchedAt": "2026-06-02T09:44:57.200Z"
  },
  "8/39": {
    "precinct": "8/39",
    "lat": 40.136821,
    "lng": 44.486095,
    "station": "«Երևանի հ.75 հիմնական դպրոց» ՊՈԱԿ, Ա.Խոստիկյան փ. /Ն. Շենգավիթի 12 փ./ 13 ",
    "marz": "Երևան",
    "community": "Շենգավիթ",
    "source": "elections.am/AccessibilityMap",
    "fetchedAt": "2026-06-02T09:44:57.200Z"
  },
  "8/40": {
    "precinct": "8/40",
    "lat": 40.136821,
    "lng": 44.486095,
    "station": "«Երևանի հ.75 հիմնական դպրոց» ՊՈԱԿ, Ա. Խոստիկյան փ. /Ն. Շենգավիթի 12 փ./ 13",
    "marz": "Երևան",
    "community": "Շենգավիթ",
    "source": "elections.am/AccessibilityMap",
    "fetchedAt": "2026-06-02T09:44:57.200Z"
  },
  "8/41": {
    "precinct": "8/41",
    "lat": 40.136269,
    "lng": 44.488623,
    "station": "«Երևանի Գ. Զոհրապի անվան հ.97 ավագ դպրոց» ՊՈԱԿ, Ա. Խոստիկյան փ. /Ն. Շենգավիթի 12 փ./ 12",
    "marz": "Երևան",
    "community": "Շենգավիթ",
    "source": "elections.am/AccessibilityMap",
    "fetchedAt": "2026-06-02T09:44:57.200Z"
  },
  "8/42": {
    "precinct": "8/42",
    "lat": 40.136269,
    "lng": 44.488623,
    "station": "«Երևանի Գ. Զոհրապի անվան հ.97 ավագ դպրոց» ՊՈԱԿ, Ա. Խոստիկյան փ. /Ն. Շենգավիթի 12 փ./ 12",
    "marz": "Երևան",
    "community": "Շենգավիթ",
    "source": "elections.am/AccessibilityMap",
    "fetchedAt": "2026-06-02T09:44:57.200Z"
  },
  "8/43": {
    "precinct": "8/43",
    "lat": 40.149069,
    "lng": 44.461438,
    "station": "«Երևանի Մ. Ջանբազյանի անվան հ.79 հիմնական դպրոց» ՊՈԱԿ,  Հ. Հովհաննիսյան 30",
    "marz": "Երևան",
    "community": "Շենգավիթ",
    "source": "elections.am/AccessibilityMap",
    "fetchedAt": "2026-06-02T09:44:57.200Z"
  },
  "8/44": {
    "precinct": "8/44",
    "lat": 40.149069,
    "lng": 44.461438,
    "station": "«Երևանի Մ. Ջանբազյանի անվան հ.79 հիմնական դպրոց» ՊՈԱԿ,  Հ. Հովհաննիսյան 30",
    "marz": "Երևան",
    "community": "Շենգավիթ",
    "source": "elections.am/AccessibilityMap",
    "fetchedAt": "2026-06-02T09:44:57.200Z"
  },
  "8/45": {
    "precinct": "8/45",
    "lat": 40.141234,
    "lng": 44.436717,
    "station": "«Երևանի Հ. Շիրազի անվան հ.169 հիմնական դպրոց» ՊՈԱԿ,  Շիրակի 5 նրբ. 19",
    "marz": "Երևան",
    "community": "Շենգավիթ",
    "source": "elections.am/AccessibilityMap",
    "fetchedAt": "2026-06-02T09:44:57.200Z"
  },
  "8/46": {
    "precinct": "8/46",
    "lat": 40.141234,
    "lng": 44.436717,
    "station": "«Երևանի Հ. Շիրազի անվան հ.169 հիմնական դպրոց» ՊՈԱԿ,  Շիրակի 5 նրբ. 19",
    "marz": "Երևան",
    "community": "Շենգավիթ",
    "source": "elections.am/AccessibilityMap",
    "fetchedAt": "2026-06-02T09:44:57.200Z"
  },