{
  "1/1": {
    "precinct": "1/1",
    "lat": 40.209585,
    "lng": 44.566617,
    "station": "Թիվ 51 մ/մանկապարտեզ Ավան, 6 փ. 52/1",
    "marz": "Երևան",
    "community": "Ավան",
    "registry_address": "Թիվ 51 մ/մանկապարտեզ Ավան, 6 փ. 52/1",
    "source": "cec-register",
    "savedAt": "2026-06-01T15:26:27.256Z"
  },
  "1/2": {
    "precinct": "1/2",
    "lat": 40.209585,
    "lng": 44.566617,
    "station": "Թիվ 51 մ/մանկապարտեզ Ավան, 6 փ. 52/1",
    "marz": "Երևան",
    "community": "Ավան",
    "registry_address": "Թիվ 51 մ/մանկապարտեզ Ավան, 6 փ. 52/1",
    "source": "shared-building(1/1)",
    "savedAt": "2026-06-01T15:29:46.099Z"
  },
  "1/3": {
    "precinct": "1/3",
    "lat": 40.21050916,
    "lng": 44.56705391,
    "station": "Թիվ 87 դպրոց Ավան, Խուդյակով փ. 44",
    "marz": "Երևան",
    "community": "Ավան",
    "registry_address": "Թիվ 87 դպրոց Ավան, Խուդյակով փ. 44",
    "source": "cec-register",
    "savedAt": "2026-06-01T15:37:14.867Z"
  },
  "1/4": {
    "precinct": "1/4",
    "lat": 40.21050916,
    "lng": 44.56705391,
    "station": "Թիվ 87 դպրոց Ավան, Խուդյակով փ. 44",
    "marz": "Երևան",
    "community": "Ավան",
    "registry_address": "Թիվ 87 դպրոց Ավան, Խուդյակով փ. 44",
    "source": "shared-building(1/3)",
    "savedAt": "2026-06-01T15:37:14.901Z"
  },
  "1/5": {
    "precinct": "1/5",
    "lat": 40.215869,
    "lng": 44.564308,
    "station": "Թիվ 104 դպրոց Ավան, Աճառյան 5",
    "marz": "Երևան",
    "community": "Ավան",
    "registry_address": "Թիվ 104 դպրոց Ավան, Աճառյան 5",
    "source": "cec-register",
    "savedAt": "2026-06-01T15:40:10.895Z"
  },
  "1/6": {
    "precinct": "1/6",
    "lat": 40.21840453,
    "lng": 44.56441943,
    "station": "Օհանյանի անվան հիմն. դպրոց Ավան, Աճառյան փկղ. 15/1",
    "marz": "Երևան",
    "community": "Ավան",
    "registry_address": "Օհանյանի անվան հիմն. դպրոց Ավան, Աճառյան փկղ. 15/1",
    "source": "cec-register",
    "savedAt": "2026-06-01T15:41:08.071Z"
  },
  "1/7": {
    "precinct": "1/7",
    "lat": 40.22205469,
    "lng": 44.57004745,
    "station": "Թիվ 56 մ/մանկապարտեզ Ավան Առինջ, 1 մ/շ, 1/14",
    "marz": "Երևան",
    "community": "Ավան",
    "registry_address": "Թիվ 56 մ/մանկապարտեզ Ավան Առինջ, 1 մ/շ, 1/14",
    "source": "cec-register",
    "savedAt": "2026-06-01T15:42:09.657Z"
  },
  "1/8": {
    "precinct": "1/8",
    "lat": 40.22205469,
    "lng": 44.57004745,
    "station": "Թիվ 56 մ/մանկապարտեզ Ավան Առինջ, 1 մ/շ, 1/14",
    "marz": "Երևան",
    "community": "Ավան",
    "registry_address": "Թիվ 56 մ/մանկապարտեզ Ավան Առինջ, 1 մ/շ, 1/14",
    "source": "shared-building(1/7)",
    "savedAt": "2026-06-01T15:42:09.697Z"
  },
  "1/9": {
    "precinct": "1/9",
    "lat": 40.2260901,
    "lng": 44.57176292,
    "station": "Թիվ 180 դպրոց Ավան Առինջ թաղ., 2 մ/շ",
    "marz": "Երևան",
    "community": "Ավան",
    "registry_address": "Թիվ 180 դպրոց Ավան Առինջ թաղ., 2 մ/շ",
    "source": "cec-register",
    "savedAt": "2026-06-01T15:43:51.107Z"
  },
  "37/17": {
    "precinct": "37/17",
    "lat": 41.24180361544047,
    "lng": 44.8199224618765,
    "station": "Մշակույթի տուն, փողոց 1, շենք 15",
    "marz": "Տավուշ",
    "community": "Նոյեմբերյան",
    "registry_address": "Մշակույթի տուն, փողոց 1, շենք 15",
    "source": "cec-register",
    "savedAt": "2026-06-01T16:38:49.488Z"
  },
  "27/1": {
    "precinct": "27/1",
    "lat": 40.30853943827014,
    "lng": 44.47681327092202,
    "station": "Թիվ 3 հիմնական դպրոց (սպորտյին դահլիճ), Երևանյան փող․, 7/2 շ․",
    "marz": "Կոտայք",
    "community": "Նաիրի",
    "registry_address": "Թիվ 3 հիմնական դպրոց (սպորտյին դահլիճ), Երևանյան փող․, 7/2 շ․",
    "source": "cec-register",
    "savedAt": "2026-06-01T16:38:49.488Z"
  },
  "27/27": {
    "precinct": "27/27",
    "lat": 40.39913379945345,
    "lng": 44.64019694232037,
    "station": "ԹԻՎ 2 ՀԻՄՆԱԿԱՆ ԴՊՐՈՑ ՕՂԱԿԱՅԻՆ  ՓՈՂՈՑ 36",
    "marz": "Կոտայք",
    "community": "Չարենցավան",
    "registry_address": "ԹԻՎ 2 ՀԻՄՆԱԿԱՆ ԴՊՐՈՑ ՕՂԱԿԱՅԻՆ  ՓՈՂՈՑ 36",
    "source": "cec-register",
    "savedAt": "2026-06-01T16:38:49.489Z"
  },
  "26/33": {
    "precinct": "26/33",
    "lat": 40.54176227742479,
    "lng": 44.77404996753923,
    "station": "հասցե՝ ք.Հրազդան, Միկրոշրջան  թաղամաս   13-րդ փողոց  16/1,ԵՄՄՈՒԿ-ի շենքը",
    "marz": "Կոտայք",
    "community": "Հրազդան",
    "registry_address": "հասցե՝ ք.Հրազդան, Միկրոշրջան  թաղամաս   13-րդ փողոց  16/1,ԵՄՄՈՒԿ-ի շենքը",
    "source": "cec-register",
    "savedAt": "2026-06-01T16:38:49.489Z"
  },
  "23/18": {
    "precinct": "23/18",
    "lat": 40.7998495063813,
    "lng": 44.52165689655438,
    "station": "Վանաձորի թիվ 30 մանկապարտեզ  (ք․ Վանաձոր Ուսանողական 91 շենք)",
    "marz": "Լոռի",
    "community": "Վանաձոր",
    "registry_address": "Վանաձորի թիվ 30 մանկապարտեզ  (ք․ Վանաձոր Ուսանողական 91 շենք)",
    "source": "cec-register",
    "savedAt": "2026-06-01T16:43:26.994Z"
  },
  "32/44": {
    "precinct": "32/44",
    "lat": 40.7494271369809,
    "lng": 43.8520448924695,
    "station": "Մասնավոր շենք Արևելյան 4/3",
    "marz": "Շիրակ",
    "community": "Գյումրի",
    "registry_address": "Մասնավոր շենք Արևելյան 4/3",
    "source": "cec-register",
    "savedAt": "2026-06-01T16:43:26.994Z"
  },
  "31/52": {
    "precinct": "31/52",
    "lat": 40.7821655885594,
    "lng": 43.852098240868,
    "station": "«Թոռնիկ Մանուշակ-մսուր  մանկապարտեզ» Ս.Մատնիշյան 117",
    "marz": "Շիրակ",
    "community": "Գյումրի",
    "registry_address": "«Թոռնիկ Մանուշակ-մսուր  մանկապարտեզ» Ս.Մատնիշյան 117",
    "source": "cec-register",
    "savedAt": "2026-06-01T16:38:49.489Z"
  },
  "31/42": {
    "precinct": "31/42",
    "lat": 40.7851283,
    "lng": 43.8426574,
    "station": "Թիվ 7 հիմնական դպրոց Ալ.Մանուկյան 4",
    "marz": "Շիրակ",
    "community": "Գյումրի",
    "registry_address": "Թիվ 7 հիմնական դպրոց Ալ.Մանուկյան 4",
    "source": "cec-register",
    "savedAt": "2026-06-01T16:43:26.994Z"
  },
  "20/7": {
    "precinct": "20/7",
    "lat": 40.54903860426245,
    "lng": 44.96211712694886,
    "station": "Սևանի Մ. Մաշտոցի անվ. թիվ 1 Հ/Դ  Նաիրյան փողոց, շենք 173",
    "marz": "Գեղարքունիք",
    "community": "Սեվան",
    "registry_address": "Սևանի Մ. Մաշտոցի անվ. թիվ 1 Հ/Դ  Նաիրյան փողոց, շենք 173",
    "source": "cec-register",
    "savedAt": "2026-06-01T16:38:49.489Z"
  },
  "21/10": {
    "precinct": "21/10",
    "lat": 40.130442,
    "lng": 45.248137,
    "station": "Վ․ Գետաշենի N2 միջնակարգ դպրոց, Ա․ թղմ․ 7  փ․ 7",
    "marz": "Գեղարքունիք",
    "community": "Մարտունի",
    "registry_address": "Վ․ Գետաշենի N2 միջնակարգ դպրոց, Ա․ թղմ․ 7  փ․ 7",
    "source": "cec-register",
    "savedAt": "2026-06-01T16:38:49.489Z"
  },
  "16/16": {
    "precinct": "16/16",
    "lat": 40.1432553549301,
    "lng": 44.03081006254001,
    "station": "5-րդ փողոց թիվ 1շենք /121 տարածք/",
    "marz": "Արմավիր",
    "community": "Արմավիր",
    "registry_address": "5-րդ փողոց թիվ 1շենք /121 տարածք/",
    "source": "cec-register",
    "savedAt": "2026-06-01T16:38:49.488Z"
  },
  "12/29": {
    "precinct": "12/29",
    "lat": 40.038959,
    "lng": 44.565474,
    "station": "Գետազատի միջն.դպրոց, Բաղրամյան 1/1",
    "marz": "Արարատ",
    "community": "Արտաշատ",
    "registry_address": "Գետազատի միջն.դպրոց, Բաղրամյան 1/1",
    "source": "cec-register",
    "savedAt": "2026-06-01T16:38:49.488Z"
  },
  "35/3": {
    "precinct": "35/3",
    "lat": 39.20527228847912,
    "lng": 46.40908095405866,
    "station": "«Կապանի թիվ 7 հիմնական դպրոց ՊՈԱԿ Շահումյան փողոց, շենք 12/5",
    "marz": "Սյունիք",
    "community": "Կապան",
    "registry_address": "«Կապանի թիվ 7 հիմնական դպրոց ՊՈԱԿ Շահումյան փողոց, շենք 12/5",
    "source": "cec-register",
    "savedAt": "2026-06-01T16:38:49.488Z"
  },
  "15/5": {
    "precinct": "15/5",
    "lat": 40.143839,
    "lng": 44.119755,
    "station": "Թիվ 3  մանկապարտեզ",
    "marz": "Արմավիր",
    "community": "Մեծամոր",
    "registry_address": "Թիվ 3  մանկապարտեզ",
    "source": "cec-register",
    "savedAt": "2026-06-01T16:38:49.488Z"
  },
  "21/37": {
    "precinct": "21/37",
    "lat": 40.151681,
    "lng": 45.609198,
    "station": "Լճավանի միջնակարգ դպրոցի շենք  10-րդ փողոց,շ․ 35/1",
    "marz": "Գեղարքունիք",
    "community": "Վարդենիս",
    "registry_address": "Լճավանի միջնակարգ դպրոցի շենք  10-րդ փողոց,շ․ 35/1",
    "source": "cec-register",
    "savedAt": "2026-06-01T16:38:49.488Z"
  },
  "1/15": {
    "precinct": "1/15",
    "lat": 40.218678,
    "lng": 44.574376,
    "station": "«Երևանի հ.170 ավագ դպրոց» ՊՈԱԿ, Թումանյան թաղամաս 30",
    "marz": "Երևան",
    "community": "Ավան",
    "registry_address": "«Երևանի հ.170 ավագ դպրոց» ՊՈԱԿ, Թումանյան թաղամաս 30",
    "source": "cec-register",
    "savedAt": "2026-06-01T16:38:49.488Z"
  },
  "10/35": {
    "precinct": "10/35",
    "lat": 40.14015,
    "lng": 44.534409,
    "station": "«Երևանի Պ. Սևակի անվան հ.123 հիմնական դպրոց» ՊՈԱԿ Նոր Արեշի 35-րդ փող. հ.2",
    "marz": "Երևան",
    "community": "Էրեբունի",
    "registry_address": "«Երևանի Պ. Սևակի անվան հ.123 հիմնական դպրոց» ՊՈԱԿ Նոր Արեշի 35-րդ փող. հ.2",
    "source": "cec-register",
    "savedAt": "2026-06-01T16:38:49.488Z"
  },
  "5/11": {
    "precinct": "5/11",
    "lat": 40.224529,
    "lng": 44.49431,
    "station": "«Երևանի Գևորգ Վարդանյանի անվան հ.192 հիմնական դպրոց» ՊՈԱԿ, 2-րդ թաղամաս",
    "marz": "Երևան",
    "community": "Դավթաշեն",
    "registry_address": "«Երևանի Գևորգ Վարդանյանի անվան հ.192 հիմնական դպրոց» ՊՈԱԿ, 2-րդ թաղամաս",
    "source": "cec-register",
    "savedAt": "2026-06-01T16:38:49.488Z"
  },
  "29/8": {
    "precinct": "29/8",
    "lat": 40.278856,
    "lng": 44.628046,
    "station": "Աբովյանի գեղարվեստի դպրոց, 3 մ/շ Ս.Մնացականյան 1/5/1",
    "marz": "Կոտայք",
    "community": "Աբովյան",
    "registry_address": "Աբովյանի գեղարվեստի դպրոց, 3 մ/շ Ս.Մնացականյան 1/5/1",
    "source": "cec-register",
    "savedAt": "2026-06-01T16:38:49.488Z"
  },
  "15/36": {
    "precinct": "15/36",
    "lat": 40.089638,
    "lng": 43.994597,
    "station": "Միջնակարգ դպրոց, Մաշտոցի 14",
    "marz": "Արմավիր",
    "community": "Մեծամոր",
    "registry_address": "Միջնակարգ դպրոց, Մաշտոցի 14",
    "source": "cec-register",
    "savedAt": "2026-06-01T16:38:49.488Z"
  },
  "29/21": {
    "precinct": "29/21",
    "lat": 40.27227079170724,
    "lng": 44.62924702238872,
    "station": "Թիվ 4 ավագ դպրոց, 2 մ/շ Ռոսիա 26",
    "marz": "Կոտայք",
    "community": "Աբովյան",
    "registry_address": "Թիվ 4 ավագ դպրոց, 2 մ/շ Ռոսիա 26",
    "source": "cec-register",
    "savedAt": "2026-06-01T16:38:49.489Z"
  },
  "9/23": {
    "precinct": "9/23",
    "lat": 40.185179,
    "lng": 44.507365,
    "station": "Անդրանիկ Մարգարյանի անվան թիվ 29 դպրոց, Սարյան 23",
    "marz": "Երևան",
    "community": "Կենտրոն",
    "registry_address": "Անդրանիկ Մարգարյանի անվան թիվ 29 դպրոց, Սարյան 23",
    "source": "cec-register",
    "savedAt": "2026-06-01T16:43:26.994Z"
  },
  "26/25": {
    "precinct": "26/25",
    "lat": 40.551830710277684,
    "lng": 44.76130397665301,
    "station": "հասցե՝ ք.Հրազդան, Միկրոշրջան թաղամաս, Թիվ 9 հիմնական դպրոցը",
    "marz": "Կոտայք",
    "community": "Հրազդան",
    "registry_address": "հասցե՝ ք.Հրազդան, Միկրոշրջան թաղամաս, Թիվ 9 հիմնական դպրոցը",
    "source": "cec-register",
    "savedAt": "2026-06-01T16:43:26.994Z"
  },
  "10/21": {
    "precinct": "10/21",
    "lat": 40.153389,
    "lng": 44.514259,
    "station": "Գյուղատնտեսական քոլեջ Բուռնազյան փող. հ.143",
    "marz": "Երևան",
    "community": "Էրեբունի",
    "registry_address": "Գյուղատնտեսական քոլեջ Բուռնազյան փող. հ.143",
    "source": "cec-register",
    "savedAt": "2026-06-01T16:38:49.489Z"
  },
  "10/7": {
    "precinct": "10/7",
    "lat": 40.161875,
    "lng": 44.524678,
    "station": "Հ.66 մանկապարտեզ Սարի Թաղի 7-րդ փող. հ. 15",
    "marz": "Երևան",
    "community": "Էրեբունի",
    "registry_address": "Հ.66 մանկապարտեզ Սարի Թաղի 7-րդ փող. հ. 15",
    "source": "cec-register",
    "savedAt": "2026-06-01T16:43:26.994Z"
  },
  "10/17": {
    "precinct": "10/17",
    "lat": 40.145288,
    "lng": 44.52975,
    "station": "«Երևանի Ա. Իսահակյանի անվան հ.16 ավագ դպրոց» ՊՈԱԿ, Նոր Արեշի 9-րդ փող. հ.54",
    "marz": "Երևան",
    "community": "Էրեբունի",
    "registry_address": "«Երևանի Ա. Իսահակյանի անվան հ.16 ավագ դպրոց» ՊՈԱԿ, Նոր Արեշի 9-րդ փող. հ.54",
    "source": "cec-register",
    "savedAt": "2026-06-01T16:38:49.489Z"
  },
  "31/16": {
    "precinct": "31/16",
    "lat": 40.814473797343844,
    "lng": 43.81514590223486,
    "station": "Մուշ զարգացման կենտրոն Մուշ-2 թղմ. 12",
    "marz": "Շիրակ",
    "community": "Գյումրի",
    "registry_address": "Մուշ զարգացման կենտրոն Մուշ-2 թղմ. 12",
    "source": "cec-register",
    "savedAt": "2026-06-01T16:38:49.489Z"
  },
  "2/26": {
    "precinct": "2/26",
    "lat": 40.177056,
    "lng": 44.561278,
    "station": "Նախկին հ.22 մանկապարտեզ, Հ.Ավետիսյան 5/1",
    "marz": "Երևան",
    "community": "Նոր Նորք",
    "registry_address": "Նախկին հ.22 մանկապարտեզ, Հ.Ավետիսյան 5/1",
    "source": "cec-register",
    "savedAt": "2026-06-01T16:43:26.993Z"
  },
  "36/4": {
    "precinct": "36/4",
    "lat": 39.76092805783498,
    "lng": 45.328036172677805,
    "station": "Ռելեի գործարանի հասարակական տարածք, ք. Եղեգնաձոր, Շահումյան փողոց, 20 շենք",
    "marz": "Վայոց ձոր",
    "community": "Եղեգնաձոր",
    "registry_address": "Ռելեի գործարանի հասարակական տարածք, ք. Եղեգնաձոր, Շահումյան փողոց, 20 շենք",
    "source": "cec-register",
    "savedAt": "2026-06-01T16:43:26.994Z"
  },
  "4/50": {
    "precinct": "4/50",
    "lat": 40.19511,
    "lng": 44.487846,
    "station": "Հ.27 մանկապարտեզ  Կիևյան 7",
    "marz": "Երևան",
    "community": "Արաբկիր",
    "registry_address": "Հ.27 մանկապարտեզ  Կիևյան 7",
    "source": "cec-register",
    "savedAt": "2026-06-01T16:43:26.994Z"
  },
  "3/5": {
    "precinct": "3/5",
    "lat": 40.222529,
    "lng": 44.536822,
    "station": "Ս․Շահմուրադյանի անվ․ հ․85 հիմնական դպրոց  Ծարավ աղբյուր 21Ա",
    "marz": "Երևան",
    "community": "Քանաքեռ-Զեյթուն",
    "registry_address": "Ս․Շահմուրադյանի անվ․ հ․85 հիմնական դպրոց  Ծարավ աղբյուր 21Ա",
    "source": "cec-register",
    "savedAt": "2026-06-01T16:43:26.994Z"
  },
  "2/57": {
    "precinct": "2/57",
    "lat": 40.200651,
    "lng": 44.562499,
    "station": "«Երևանի Թ. Կրպեյանի անվան հ.62 ավագ դպրոց» ՊՈԱԿ, Նանսենի 6",
    "marz": "Երևան",
    "community": "Նոր Նորք",
    "registry_address": "«Երևանի Թ. Կրպեյանի անվան հ.62 ավագ դպրոց» ՊՈԱԿ, Նանսենի 6",
    "source": "cec-register",
    "savedAt": "2026-06-01T16:43:26.994Z"
  },
  "8/8": {
    "precinct": "8/8",
    "lat": 40.146419,
    "lng": 44.494686,
    "station": "«Երևանի Լեոյի անվան հ. 65 ավագ դպրոց» ՊՈԱԿ, Ֆրունզեի 56",
    "marz": "Երևան",
    "community": "Շենգավիթ",
    "registry_address": "«Երևանի Լեոյի անվան հ. 65 ավագ դպրոց» ՊՈԱԿ, Ֆրունզեի 56",
    "source": "cec-register",
    "savedAt": "2026-06-01T16:43:26.994Z"
  },
  "8/59": {
    "precinct": "8/59",
    "lat": 40.120993,
    "lng": 44.474615,
    "station": "«Երևանի հ. 98 հիմնական դպրոց» ՊՈԱԿ, Վ. Ենգիբարյան փողոց /Նորագավիթ 1 փ./ 97",
    "marz": "Երևան",
    "community": "Շենգավիթ",
    "registry_address": "«Երևանի հ. 98 հիմնական դպրոց» ՊՈԱԿ, Վ. Ենգիբարյան փողոց /Նորագավիթ 1 փ./ 97",
    "source": "cec-register",
    "savedAt": "2026-06-01T16:43:26.994Z"
  },
  "35/55": {
    "precinct": "35/55",
    "lat": 39.145717,
    "lng": 46.151447,
    "station": "«Քաջարանի մշակույթի պալատ ՀՈԱԿ Լեռնագործների փողոց, թիվ 2 շենք",
    "marz": "Սյունիք",
    "community": "Քաջարան",
    "registry_address": "«Քաջարանի մշակույթի պալատ ՀՈԱԿ Լեռնագործների փողոց, թիվ 2 շենք",
    "source": "cec-register",
    "savedAt": "2026-06-01T16:43:26.994Z"
  },
  "9/26": {
    "precinct": "9/26",
    "lat": 40.17968,
    "lng": 44.509213,
    "station": "Չարենցի անվան թիվ 67 դպրոց, Ամիրյան 9",
    "marz": "Երևան",
    "community": "Կենտրոն",
    "registry_address": "Չարենցի անվան թիվ 67 դպրոց, Ամիրյան 9",
    "source": "cec-register",
    "savedAt": "2026-06-01T16:43:26.994Z"
  },
  "33/15": {
    "precinct": "33/15",
    "lat": 40.65430387930709,
    "lng": 44.04439804165861,
    "station": "Մշակույթի  տուն, 1-ին փողոց 40 շենք ",
    "marz": "Շիրակ",
    "community": "Արթիկ",
    "registry_address": "Մշակույթի  տուն, 1-ին փողոց 40 շենք",
    "source": "cec-register",
    "savedAt": "2026-06-01T16:43:26.994Z"
  },
  "16/28": {
    "precinct": "16/28",
    "lat": 40.123052,
    "lng": 43.966953,
    "station": "միջնակարգ  դպրոցի շենք /7-րդ փ. 38/",
    "marz": "Արմավիր",
    "community": "Արմավիր",
    "registry_address": "միջնակարգ  դպրոցի շենք /7-րդ փ. 38/",
    "source": "cec-register",
    "savedAt": "2026-06-01T16:43:26.994Z"
  },
  "18/15": {
    "precinct": "18/15",
    "lat": 40.273370251585014,
    "lng": 44.26696047160197,
    "station": "Միջնակարգ  դպրոց, 1 փ., 3 շ.",
    "marz": "Արագածոտն",
    "community": "Աշտարակ",
    "registry_address": "Միջնակարգ  դպրոց, 1 փ., 3 շ.",
    "source": "cec-register",
    "savedAt": "2026-06-01T16:43:26.994Z"
  },
  "31/13": {
    "precinct": "31/13",
    "lat": 40.81530202244785,
    "lng": 43.81363541792857,
    "station": "Թիվ 23 միջն. դպրոց-1 Մուշ-2 թաղ.",
    "marz": "Շիրակ",
    "community": "Գյումրի",
    "registry_address": "Թիվ 23 միջն. դպրոց-1 Մուշ-2 թաղ.",
    "source": "cec-register",
    "savedAt": "2026-06-01T16:43:26.994Z"
  },
  "2/25": {
    "precinct": "2/25",
    "lat": 40.177441,
    "lng": 44.562384,
    "station": "«Երևանի Յ. Լեփսիուսի անվան հ.88 հիմնական դպրոց» ՊՈԱԿ, Կարախանյան 11",
    "marz": "Երևան",
    "community": "Նոր Նորք",
    "registry_address": "«Երևանի Յ. Լեփսիուսի անվան հ.88 հիմնական դպրոց» ՊՈԱԿ, Կարախանյան 11",
    "source": "cec-register",
    "savedAt": "2026-06-01T16:43:26.994Z"
  },
  "14/63": {
    "precinct": "14/63",
    "lat": 40.16207518242235,
    "lng": 44.432252849327554,
    "station": "Թաիրովի  մանկապարտեզ, Վ.Մամիկոնյան փողոց 8",
    "marz": "Արմավիր",
    "community": "Փարաքար",
    "registry_address": "Թաիրովի  մանկապարտեզ, Վ.Մամիկոնյան փողոց 8",
    "source": "cec-register",
    "savedAt": "2026-06-01T16:43:26.994Z"
  },
  "10/19": {
    "precinct": "10/19",
    "lat": 40.154608,
    "lng": 44.511634,
    "station": "«Երևանի Հ. Կարապենցի անվան հ.6 հիմնական դպրոց» ՊՈԱԿ Սասունցի Դավթի փող. հ.2",
    "marz": "Երևան",
    "community": "Էրեբունի",
    "registry_address": "«Երևանի Հ. Կարապենցի անվան հ.6 հիմնական դպրոց» ՊՈԱԿ Սասունցի Դավթի փող. հ.2",
    "source": "cec-register",
    "savedAt": "2026-06-01T16:43:26.994Z"
  },
  "16/19": {
    "precinct": "16/19",
    "lat": 40.18399636797243,
    "lng": 44.00401051901953,
    "station": "միջնակարգ դպրոցի շենք / Հ.Ավետիսյան փ. 37/",
    "marz": "Արմավիր",
    "community": "Արմավիր",
    "registry_address": "միջնակարգ դպրոցի շենք / Հ.Ավետիսյան փ. 37/",
    "source": "cec-register",
    "savedAt": "2026-06-01T16:43:26.994Z"
  },
  "26/32": {
    "precinct": "26/32",
    "lat": 40.54186011563344,
    "lng": 44.77440970460841,
    "station": " հասցե՝ ք.Հրազդան, Միկրոշրջան  թաղամաս  13-րդ փողոց  16/1, ԵՄՄՈՒԿ-ի շենքի ճակատային  մասը,",
    "marz": "Կոտայք",
    "community": "Հրազդան",
    "registry_address": "հասցե՝ ք.Հրազդան, Միկրոշրջան  թաղամաս  13-րդ փողոց  16/1, ԵՄՄՈՒԿ-ի շենքի ճակատային  մասը,",
    "source": "cec-register",
    "savedAt": "2026-06-01T16:43:26.994Z"
  },
  "14/17": {
    "precinct": "14/17",
    "lat": 40.15718115377577,
    "lng": 44.30179811211686,
    "station": "Թիվ 9 հիմնական դպրոց, Դավիթ Անհաղթի  27/1",
    "marz": "Արմավիր",
    "community": "Վաղարշապատ",
    "registry_address": "Թիվ 9 հիմնական դպրոց, Դավիթ Անհաղթի  27/1",
    "source": "cec-register",
    "savedAt": "2026-06-01T16:43:26.994Z"
  },
  "4/6": {
    "precinct": "4/6",
    "lat": 40.209421,
    "lng": 44.523111,
    "station": "Կ.Սարաջյանի անվան երաժշտ. դպրոց, Մամիկոնյանց 34Բ",
    "marz": "Երևան",
    "community": "Արաբկիր",
    "registry_address": "Կ.Սարաջյանի անվան երաժշտ. դպրոց, Մամիկոնյանց 34Բ",
    "source": "cec-register",
    "savedAt": "2026-06-01T16:45:37.186Z"
  },
  "7/39": {
    "precinct": "7/39",
    "lat": 40.175813,
    "lng": 44.441133,
    "station": "Թիվ 97 մանկապարտեզ, Սվաճյան 16",
    "marz": "Երևան",
    "community": "Մալաթիա-Սեբաստիա",
    "registry_address": "Թիվ 97 մանկապարտեզ, Սվաճյան 16",
    "source": "cec-register",
    "savedAt": "2026-06-01T16:45:37.186Z"
  },
  "35/42": {
    "precinct": "35/42",
    "lat": 39.286374,
    "lng": 46.39212,
    "station": "Վարչական կենտրոնի շենք 2-րդ փողոց, շենք 65",
    "marz": "Սյունիք",
    "community": "Կապան",
    "registry_address": "Վարչական կենտրոնի շենք 2-րդ փողոց, շենք 65",
    "source": "cec-register",
    "savedAt": "2026-06-01T16:45:37.186Z"
  },
  "36/3": {
    "precinct": "36/3",
    "lat": 39.76176736159096,
    "lng": 45.33663951343581,
    "station": "Թիվ 1 հիմնական դպրոց, ք. Եղեգնաձոր, Վ.Գևորգյան փ., շ. 4",
    "marz": "Վայոց ձոր",
    "community": "Եղեգնաձոր",
    "registry_address": "Թիվ 1 հիմնական դպրոց, ք. Եղեգնաձոր, Վ.Գևորգյան փ., շ. 4",
    "source": "cec-register",
    "savedAt": "2026-06-01T16:45:37.186Z"
  },
  "24/10": {
    "precinct": "24/10",
    "lat": 41.054485,
    "lng": 44.61535,
    "station": "Oձունի թիվ 1 միջնակարգ դպրոց, փողոց 5, փակուղի 4, շենք 10",
    "marz": "Լոռի",
    "community": "Ալավերդի",
    "registry_address": "Oձունի թիվ 1 միջնակարգ դպրոց, փողոց 5, փակուղի 4, շենք 10",
    "source": "cec-register",
    "savedAt": "2026-06-01T16:45:37.186Z"
  },
  "21/48": {
    "precinct": "21/48",
    "lat": 40.181002,
    "lng": 45.736341,
    "station": "Վարդենիսի Մհեր Մկրտչյանի անվան մշակույթի պալատ,    Ռոմանի փ. շ 10",
    "marz": "Գեղարքունիք",
    "community": "Վարդենիս",
    "registry_address": "Վարդենիսի Մհեր Մկրտչյանի անվան մշակույթի պալատ,    Ռոմանի փ. շ 10",
    "source": "cec-register",
    "savedAt": "2026-06-01T16:45:37.186Z"
  },
  "36/7": {
    "precinct": "36/7",
    "lat": 39.73375635189633,
    "lng": 45.3824636523262,
    "station": "Թիվ 1 միջնակարգ դպրոց, գ.Մալիշկա, փ.8., շ. 76",
    "marz": "Վայոց ձոր",
    "community": "Եղեգնաձոր",
    "registry_address": "Թիվ 1 միջնակարգ դպրոց, գ.Մալիշկա, փ.8., շ. 76",
    "source": "cec-register",
    "savedAt": "2026-06-01T16:45:37.186Z"
  },
  "4/52": {
    "precinct": "4/52",
    "lat": 40.192958,
    "lng": 44.489681,
    "station": "«Երևանի Հ. Գալստյանի անվան հ.83 ավագ դպրոց» ՊՈԱԿ, Օրբելի եղբայրների 63",
    "marz": "Երևան",
    "community": "Արաբկիր",
    "registry_address": "«Երևանի Հ. Գալստյանի անվան հ.83 ավագ դպրոց» ՊՈԱԿ, Օրբելի եղբայրների 63",
    "source": "cec-register",
    "savedAt": "2026-06-01T16:45:37.186Z"
  },
  "25/10": {
    "precinct": "25/10",
    "lat": 41.008771,
    "lng": 44.392067,
    "station": "փ. Մ. Մաշտոցի շենք 17 թիվ 4 մանկապարտեզ",
    "marz": "Լոռի",
    "community": "Ստեփանավան",
    "registry_address": "փ. Մ. Մաշտոցի շենք 17 թիվ 4 մանկապարտեզ",
    "source": "cec-register",
    "savedAt": "2026-06-01T16:45:37.186Z"
  },
  "15/59": {
    "precinct": "15/59",
    "lat": 40.089719,
    "lng": 44.269259,
    "station": "Մշակույթի տուն, Խանջյան 3",
    "marz": "Արմավիր",
    "community": "Արաքս",
    "registry_address": "Մշակույթի տուն, Խանջյան 3",
    "source": "cec-register",
    "savedAt": "2026-06-01T16:45:37.186Z"
  },
  "23/26": {
    "precinct": "23/26",
    "lat": 40.79847692585984,
    "lng": 44.50980730291955,
    "station": "Վանաձորի թիվ 31 մանկապարտեզ (ք․Վանաձոր,Ներսիսյան թաղ. 6 շենք)",
    "marz": "Լոռի",
    "community": "Վանաձոր",
    "registry_address": "Վանաձորի թիվ 31 մանկապարտեզ (ք․Վանաձոր,Ներսիսյան թաղ. 6 շենք)",
    "source": "cec-register",
    "savedAt": "2026-06-01T16:45:37.186Z"
  },
  "13/26": {
    "precinct": "13/26",
    "lat": 39.879559,
    "lng": 44.645026,
    "station": "Ոսկետափի միջն․դպրոց, Երևանյան խճ․48",
    "marz": "Արարատ",
    "community": "Վեդի",
    "registry_address": "Ոսկետափի միջն․դպրոց, Երևանյան խճ․48",
    "source": "cec-register",
    "savedAt": "2026-06-01T16:45:37.186Z"
  },
  "26/23": {
    "precinct": "26/23",
    "lat": 40.54527621014555,
    "lng": 44.767107728545795,
    "station": " հասցե՝ ք.Հրազդան, Միկրոշրջան  թաղամաս 80, Թիվ 8 նախադպրոցական ուսումնական հաստատությունը",
    "marz": "Կոտայք",
    "community": "Հրազդան",
    "registry_address": "հասցե՝ ք.Հրազդան, Միկրոշրջան  թաղամաս 80, Թիվ 8 նախադպրոցական ուսումնական հաստատությունը",
    "source": "cec-register",
    "savedAt": "2026-06-01T16:45:37.186Z"
  },
  "16/3": {
    "precinct": "16/3",
    "lat": 40.149414399776816,
    "lng": 44.03544024991432,
    "station": "թիվ 4ավագ դպրոցի շենք  /Շահումյան 46/",
    "marz": "Արմավիր",
    "community": "Արմավիր",
    "registry_address": "թիվ 4ավագ դպրոցի շենք  /Շահումյան 46/",
    "source": "cec-register",
    "savedAt": "2026-06-01T16:45:37.186Z"
  },
  "37/19": {
    "precinct": "37/19",
    "lat": 41.279873,
    "lng": 44.816081,
    "station": "Միջնակարգ դպրոց, փողոց 10, շենք 1",
    "marz": "Տավուշ",
    "community": "Նոյեմբերյան",
    "registry_address": "Միջնակարգ դպրոց, փողոց 10, շենք 1",
    "source": "cec-register",
    "savedAt": "2026-06-01T16:45:37.186Z"
  },
  "20/4": {
    "precinct": "20/4",
    "lat": 40.544734049258814,
    "lng": 44.95132877916259,
    "station": "Սևանի ավագ դպրոց Աբովյան փողոց, շենք 6",
    "marz": "Գեղարքունիք",
    "community": "Սեվան",
    "registry_address": "Սևանի ավագ դպրոց Աբովյան փողոց, շենք 6",
    "source": "cec-register",
    "savedAt": "2026-06-01T16:45:37.186Z"
  },
  "2/27": {
    "precinct": "2/27",
    "lat": 40.176836,
    "lng": 44.565617,
    "station": "Հ. 117 մսուր-մանկապարտեզ, Կարախանյան 21",
    "marz": "Երևան",
    "community": "Նոր Նորք",
    "registry_address": "Հ. 117 մսուր-մանկապարտեզ, Կարախանյան 21",
    "source": "cec-register",
    "savedAt": "2026-06-01T16:45:37.186Z"
  },
  "29/2": {
    "precinct": "29/2",
    "lat": 40.28123465436964,
    "lng": 44.63980462266986,
    "station": "Թիվ 7 մանկապարտեզ, 4մ/շ 15/9",
    "marz": "Կոտայք",
    "community": "Աբովյան",
    "registry_address": "Թիվ 7 մանկապարտեզ, 4մ/շ 15/9",
    "source": "cec-register",
    "savedAt": "2026-06-01T16:45:37.186Z"
  },
  "13/12": {
    "precinct": "13/12",
    "lat": 39.912909,
    "lng": 44.724522,
    "station": "Վեդի քաղաքային գեղարվեստի դպրոց Թումանյան  փողոց 5",
    "marz": "Արարատ",
    "community": "Վեդի",
    "registry_address": "Վեդի քաղաքային գեղարվեստի դպրոց Թումանյան  փողոց 5",
    "source": "cec-register",
    "savedAt": "2026-06-01T16:45:37.186Z"
  },
  "7/51": {
    "precinct": "7/51",
    "lat": 40.1723,
    "lng": 44.447662,
    "station": "Թիվ 191 դպրոց, Անդրանիկի 83",
    "marz": "Երևան",
    "community": "Մալաթիա-Սեբաստիա",
    "registry_address": "Թիվ 191 դպրոց, Անդրանիկի 83",
    "source": "cec-register",
    "savedAt": "2026-06-01T16:45:37.186Z"
  },
  "37/32": {
    "precinct": "37/32",
    "lat": 40.989863,
    "lng": 45.155052,
    "station": "Միջնակարգ դպրոց, փողոց 6, թիվ 4",
    "marz": "Տավուշ",
    "community": "Իջեվան",
    "registry_address": "Միջնակարգ դպրոց, փողոց 6, թիվ 4",
    "source": "cec-register",
    "savedAt": "2026-06-01T16:45:37.186Z"
  },
  "38/39": {
    "precinct": "38/39",
    "lat": 40.880677,
    "lng": 45.39364,
    "station": "Բերդի  Երաժշտական դպրոց, Սայաթ-Նովա 1/1",
    "marz": "Տավուշ",
    "community": "Բերդ",
    "registry_address": "Բերդի  Երաժշտական դպրոց, Սայաթ-Նովա 1/1",
    "source": "cec-register",
    "savedAt": "2026-06-01T16:45:37.186Z"
  },
  "16/10": {
    "precinct": "16/10",
    "lat": 40.16310827682786,
    "lng": 44.03678153944465,
    "station": "թիվ 3 հիմնական դպրոցի շենք / Կոմիտաս 27/",
    "marz": "Արմավիր",
    "community": "Արմավիր",
    "registry_address": "թիվ 3 հիմնական դպրոցի շենք / Կոմիտաս 27/",
    "source": "cec-register",
    "savedAt": "2026-06-01T16:45:37.186Z"
  },
  "8/1": {
    "precinct": "8/1",
    "lat": 40.15731,
    "lng": 44.502309,
    "station": "Երևանի Փ. Թերլեմեզյանի անվան գեղարվեստի պետական քոլեջ ՊՈԱԿ, Արշակունյաց 39 ",
    "marz": "Երևան",
    "community": "Շենգավիթ",
    "registry_address": "Երևանի Փ. Թերլեմեզյանի անվան գեղարվեստի պետական քոլեջ ՊՈԱԿ, Արշակունյաց 39",
    "source": "cec-register",
    "savedAt": "2026-06-01T16:45:37.186Z"
  },
  "29/39": {
    "precinct": "29/39",
    "lat": 40.13858,
    "lng": 44.784436,
    "station": "Գողթի միջն դպրոց, 5-րդ փողոց թիվ 12",
    "marz": "Կոտայք",
    "community": "Գառնի",
    "registry_address": "Գողթի միջն դպրոց, 5-րդ փողոց թիվ 12",
    "source": "cec-register",
    "savedAt": "2026-06-01T16:45:37.186Z"
  }
}
