{
  "1/1": {
    "precinct": "1/1",
    "lat": 40.209585,
    "lng": 44.566617,
    "station": "Թիվ 51 մ/մանկապարտեզ Ավան, 6 փ. 52/1",
    "marz": "Երևան",
    "community": "Ավան",
    "registry_address": "Թիվ 51 մ/մանկապարտեզ Ավան, 6 փ. 52/1",
    "source": "cec-register",
    "savedAt": "2026-06-02T18:09:24.206Z"
  },
  "1/2": {
    "precinct": "1/2",
    "lat": 40.209585,
    "lng": 44.566617,
    "station": "Թիվ 51 մ/մանկապարտեզ Ավան, 6 փ. 52/1",
    "marz": "Երևան",
    "community": "Ավան",
    "registry_address": "Թիվ 51 մ/մանկապարտեզ Ավան, 6 փ. 52/1",
    "source": "cec-register",
    "savedAt": "2026-06-02T18:52:36.841Z"
  },
  "1/3": {
    "precinct": "1/3",
    "lat": 40.21050916,
    "lng": 44.56705391,
    "station": "Թիվ 87 դպրոց Ավան, Խուդյակով փ. 44",
    "marz": "Երևան",
    "community": "Ավան",
    "registry_address": "Թիվ 87 դպրոց Ավան, Խուդյակով փ. 44",
    "source": "cec-register",
    "savedAt": "2026-06-02T18:23:54.673Z"
  },
  "1/4": {
    "precinct": "1/4",
    "lat": 40.21051099,
    "lng": 44.5670898,
    "station": "Թիվ 87 դպրոց Ավան, Խուդյակով փ. 44",
    "marz": "Երևան",
    "community": "Ավան",
    "registry_address": "Թիվ 87 դպրոց Ավան, Խուդյակով փ. 44",
    "source": "cec-register",
    "savedAt": "2026-06-02T17:52:50.151Z"
  },
  "1/5": {
    "precinct": "1/5",
    "lat": 40.215869,
    "lng": 44.564308,
    "station": "Թիվ 104 դպրոց Ավան, Աճառյան 5",
    "marz": "Երևան",
    "community": "Ավան",
    "registry_address": "Թիվ 104 դպրոց Ավան, Աճառյան 5",
    "source": "cec-register",
    "savedAt": "2026-06-01T15:40:10.895Z"
  },
  "1/6": {
    "precinct": "1/6",
    "lat": 40.21840453,
    "lng": 44.56441943,
    "station": "Օհանյանի անվան հիմն. դպրոց Ավան, Աճառյան փկղ. 15/1",
    "marz": "Երևան",
    "community": "Ավան",
    "registry_address": "Օհանյանի անվան հիմն. դպրոց Ավան, Աճառյան փկղ. 15/1",
    "source": "cec-register",
    "savedAt": "2026-06-01T15:41:08.071Z"
  },
  "1/7": {
    "precinct": "1/7",
    "lat": 40.22205469,
    "lng": 44.57004745,
    "station": "Թիվ 56 մ/մանկապարտեզ Ավան Առինջ, 1 մ/շ, 1/14",
    "marz": "Երևան",
    "community": "Ավան",
    "registry_address": "Թիվ 56 մ/մանկապարտեզ Ավան Առինջ, 1 մ/շ, 1/14",
    "source": "cec-register",
    "savedAt": "2026-06-02T18:23:54.668Z"
  },
  "1/8": {
    "precinct": "1/8",
    "lat": 40.22207745,
    "lng": 44.57002701,
    "station": "Թիվ 56 մ/մանկապարտեզ Ավան Առինջ, 1 մ/շ, 1/14",
    "marz": "Երևան",
    "community": "Ավան",
    "registry_address": "Թիվ 56 մ/մանկապարտեզ Ավան Առինջ, 1 մ/շ, 1/14",
    "source": "cec-register",
    "savedAt": "2026-06-02T17:12:29.959Z"
  },
  "1/9": {
    "precinct": "1/9",
    "lat": 40.2260901,
    "lng": 44.57176292,
    "station": "Թիվ 180 դպրոց Ավան Առինջ թաղ., 2 մ/շ",
    "marz": "Երևան",
    "community": "Ավան",
    "registry_address": "Թիվ 180 դպրոց Ավան Առինջ թաղ., 2 մ/շ",
    "source": "cec-register",
    "savedAt": "2026-06-01T15:43:51.107Z"
  },
  "37/17": {
    "precinct": "37/17",
    "lat": 41.24180361544047,
    "lng": 44.8199224618765,
    "station": "Մշակույթի տուն, փողոց 1, շենք 15",
    "marz": "Տավուշ",
    "community": "Նոյեմբերյան",
    "registry_address": "Մշակույթի տուն, փողոց 1, շենք 15",
    "source": "cec-register",
    "savedAt": "2026-06-02T18:52:36.841Z"
  },
  "27/1": {
    "precinct": "27/1",
    "lat": 40.30853943827014,
    "lng": 44.47681327092202,
    "station": "Թիվ 3 հիմնական դպրոց (սպորտյին դահլիճ), Երևանյան փող․, 7/2 շ․",
    "marz": "Կոտայք",
    "community": "Նաիրի",
    "registry_address": "Թիվ 3 հիմնական դպրոց (սպորտյին դահլիճ), Երևանյան փող․, 7/2 շ․",
    "source": "cec-register",
    "savedAt": "2026-06-02T17:10:17.344Z"
  },
  "27/27": {
    "precinct": "27/27",
    "lat": 40.39913379945345,
    "lng": 44.64019694232037,
    "station": "ԹԻՎ 2 ՀԻՄՆԱԿԱՆ ԴՊՐՈՑ ՕՂԱԿԱՅԻՆ  ՓՈՂՈՑ 36",
    "marz": "Կոտայք",
    "community": "Չարենցավան",
    "registry_address": "ԹԻՎ 2 ՀԻՄՆԱԿԱՆ ԴՊՐՈՑ ՕՂԱԿԱՅԻՆ  ՓՈՂՈՑ 36",
    "source": "cec-register",
    "savedAt": "2026-06-02T16:46:53.482Z"
  },
  "26/33": {
    "precinct": "26/33",
    "lat": 40.54176227742479,
    "lng": 44.77404996753923,
    "station": "հասցե՝ ք.Հրազդան, Միկրոշրջան  թաղամաս   13-րդ փողոց  16/1,ԵՄՄՈՒԿ-ի շենքը",
    "marz": "Կոտայք",
    "community": "Հրազդան",
    "registry_address": "հասցե՝ ք.Հրազդան, Միկրոշրջան  թաղամաս   13-րդ փողոց  16/1,ԵՄՄՈՒԿ-ի շենքը",
    "source": "cec-register",
    "savedAt": "2026-06-02T16:46:53.483Z"
  },
  "23/18": {
    "precinct": "23/18",
    "lat": 40.7998495063813,
    "lng": 44.52165689655438,
    "station": "Վանաձորի թիվ 30 մանկապարտեզ  (ք․ Վանաձոր Ուսանողական 91 շենք)",
    "marz": "Լոռի",
    "community": "Վանաձոր",
    "registry_address": "Վանաձորի թիվ 30 մանկապարտեզ  (ք․ Վանաձոր Ուսանողական 91 շենք)",
    "source": "cec-register",
    "savedAt": "2026-06-02T18:09:24.207Z"
  },
  "32/44": {
    "precinct": "32/44",
    "lat": 40.7494271369809,
    "lng": 43.8520448924695,
    "station": "Մասնավոր շենք Արևելյան 4/3",
    "marz": "Շիրակ",
    "community": "Գյումրի",
    "registry_address": "Մասնավոր շենք Արևելյան 4/3",
    "source": "cec-register",
    "savedAt": "2026-06-02T16:49:13.285Z"
  },
  "31/52": {
    "precinct": "31/52",
    "lat": 40.7821655885594,
    "lng": 43.852098240868,
    "station": "«Թոռնիկ Մանուշակ-մսուր  մանկապարտեզ» Ս.Մատնիշյան 117",
    "marz": "Շիրակ",
    "community": "Գյումրի",
    "registry_address": "«Թոռնիկ Մանուշակ-մսուր  մանկապարտեզ» Ս.Մատնիշյան 117",
    "source": "cec-register",
    "savedAt": "2026-06-02T17:52:50.151Z"
  },
  "31/42": {
    "precinct": "31/42",
    "lat": 40.7851283,
    "lng": 43.8426574,
    "station": "Թիվ 7 հիմնական դպրոց Ալ.Մանուկյան 4",
    "marz": "Շիրակ",
    "community": "Գյումրի",
    "registry_address": "Թիվ 7 հիմնական դպրոց Ալ.Մանուկյան 4",
    "source": "cec-register",
    "savedAt": "2026-06-02T16:49:13.285Z"
  },
  "20/7": {
    "precinct": "20/7",
    "lat": 40.54903860426245,
    "lng": 44.96211712694886,
    "station": "Սևանի Մ. Մաշտոցի անվ. թիվ 1 Հ/Դ  Նաիրյան փողոց, շենք 173",
    "marz": "Գեղարքունիք",
    "community": "Սեվան",
    "registry_address": "Սևանի Մ. Մաշտոցի անվ. թիվ 1 Հ/Դ  Նաիրյան փողոց, շենք 173",
    "source": "cec-register",
    "savedAt": "2026-06-02T17:52:50.151Z"
  },
  "21/10": {
    "precinct": "21/10",
    "lat": 40.130442,
    "lng": 45.248137,
    "station": "Վ․ Գետաշենի N2 միջնակարգ դպրոց, Ա․ թղմ․ 7  փ․ 7",
    "marz": "Գեղարքունիք",
    "community": "Մարտունի",
    "registry_address": "Վ․ Գետաշենի N2 միջնակարգ դպրոց, Ա․ թղմ․ 7  փ․ 7",
    "source": "cec-register",
    "savedAt": "2026-06-02T16:46:53.483Z"
  },
  "16/16": {
    "precinct": "16/16",
    "lat": 40.1432553549301,
    "lng": 44.03081006254001,
    "station": "5-րդ փողոց թիվ 1շենք /121 տարածք/",
    "marz": "Արմավիր",
    "community": "Արմավիր",
    "registry_address": "5-րդ փողոց թիվ 1շենք /121 տարածք/",
    "source": "cec-register",
    "savedAt": "2026-06-02T17:35:49.516Z"
  },
  "12/29": {
    "precinct": "12/29",
    "lat": 40.038959,
    "lng": 44.565474,
    "station": "Գետազատի միջն.դպրոց, Բաղրամյան 1/1",
    "marz": "Արարատ",
    "community": "Արտաշատ",
    "registry_address": "Գետազատի միջն.դպրոց, Բաղրամյան 1/1",
    "source": "cec-register",
    "savedAt": "2026-06-02T16:46:53.482Z"
  },
  "35/3": {
    "precinct": "35/3",
    "lat": 39.20527228847912,
    "lng": 46.40908095405866,
    "station": "«Կապանի թիվ 7 հիմնական դպրոց ՊՈԱԿ Շահումյան փողոց, շենք 12/5",
    "marz": "Սյունիք",
    "community": "Կապան",
    "registry_address": "«Կապանի թիվ 7 հիմնական դպրոց ՊՈԱԿ Շահումյան փողոց, շենք 12/5",
    "source": "cec-register",
    "savedAt": "2026-06-02T18:52:36.841Z"
  },
  "15/5": {
    "precinct": "15/5",
    "lat": 40.143839,
    "lng": 44.119755,
    "station": "Թիվ 3  մանկապարտեզ",
    "marz": "Արմավիր",
    "community": "Մեծամոր",
    "registry_address": "Թիվ 3  մանկապարտեզ",
    "source": "cec-register",
    "savedAt": "2026-06-02T18:23:54.674Z"
  },
  "21/37": {
    "precinct": "21/37",
    "lat": 40.151681,
    "lng": 45.609198,
    "station": "Լճավանի միջնակարգ դպրոցի շենք  10-րդ փողոց,շ․ 35/1",
    "marz": "Գեղարքունիք",
    "community": "Վարդենիս",
    "registry_address": "Լճավանի միջնակարգ դպրոցի շենք  10-րդ փողոց,շ․ 35/1",
    "source": "cec-register",
    "savedAt": "2026-06-02T16:46:53.482Z"
  },
  "1/15": {
    "precinct": "1/15",
    "lat": 40.218678,
    "lng": 44.574376,
    "station": "«Երևանի հ.170 ավագ դպրոց» ՊՈԱԿ, Թումանյան թաղամաս 30",
    "marz": "Երևան",
    "community": "Ավան",
    "registry_address": "«Երևանի հ.170 ավագ դպրոց» ՊՈԱԿ, Թումանյան թաղամաս 30",
    "source": "cec-register",
    "savedAt": "2026-06-02T16:46:53.483Z"
  },
  "10/35": {
    "precinct": "10/35",
    "lat": 40.14015,
    "lng": 44.534409,
    "station": "«Երևանի Պ. Սևակի անվան հ.123 հիմնական դպրոց» ՊՈԱԿ Նոր Արեշի 35-րդ փող. հ.2",
    "marz": "Երևան",
    "community": "Էրեբունի",
    "registry_address": "«Երևանի Պ. Սևակի անվան հ.123 հիմնական դպրոց» ՊՈԱԿ Նոր Արեշի 35-րդ փող. հ.2",
    "source": "cec-register",
    "savedAt": "2026-06-02T18:52:36.841Z"
  },
  "5/11": {
    "precinct": "5/11",
    "lat": 40.224529,
    "lng": 44.49431,
    "station": "«Երևանի Գևորգ Վարդանյանի անվան հ.192 հիմնական դպրոց» ՊՈԱԿ, 2-րդ թաղամաս",
    "marz": "Երևան",
    "community": "Դավթաշեն",
    "registry_address": "«Երևանի Գևորգ Վարդանյանի անվան հ.192 հիմնական դպրոց» ՊՈԱԿ, 2-րդ թաղամաս",
    "source": "cec-register",
    "savedAt": "2026-06-02T16:46:53.482Z"
  },
  "29/8": {
    "precinct": "29/8",
    "lat": 40.278856,
    "lng": 44.628046,
    "station": "Աբովյանի գեղարվեստի դպրոց, 3 մ/շ Ս.Մնացականյան 1/5/1",
    "marz": "Կոտայք",
    "community": "Աբովյան",
    "registry_address": "Աբովյանի գեղարվեստի դպրոց, 3 մ/շ Ս.Մնացականյան 1/5/1",
    "source": "cec-register",
    "savedAt": "2026-06-02T18:52:36.841Z"
  },
  "15/36": {
    "precinct": "15/36",
    "lat": 40.089638,
    "lng": 43.994597,
    "station": "Միջնակարգ դպրոց, Մաշտոցի 14",
    "marz": "Արմավիր",
    "community": "Մեծամոր",
    "registry_address": "Միջնակարգ դպրոց, Մաշտոցի 14",
    "source": "cec-register",
    "savedAt": "2026-06-02T16:46:53.482Z"
  },
  "29/21": {
    "precinct": "29/21",
    "lat": 40.27227079170724,
    "lng": 44.62924702238872,
    "station": "Թիվ 4 ավագ դպրոց, 2 մ/շ Ռոսիա 26",
    "marz": "Կոտայք",
    "community": "Աբովյան",
    "registry_address": "Թիվ 4 ավագ դպրոց, 2 մ/շ Ռոսիա 26",
    "source": "cec-register",
    "savedAt": "2026-06-02T18:23:54.674Z"
  },
  "9/23": {
    "precinct": "9/23",
    "lat": 40.185179,
    "lng": 44.507365,
    "station": "Անդրանիկ Մարգարյանի անվան թիվ 29 դպրոց, Սարյան 23",
    "marz": "Երևան",
    "community": "Կենտրոն",
    "registry_address": "Անդրանիկ Մարգարյանի անվան թիվ 29 դպրոց, Սարյան 23",
    "source": "cec-register",
    "savedAt": "2026-06-02T18:09:24.206Z"
  },
  "26/25": {
    "precinct": "26/25",
    "lat": 40.551830710277684,
    "lng": 44.76130397665301,
    "station": "հասցե՝ ք.Հրազդան, Միկրոշրջան թաղամաս, Թիվ 9 հիմնական դպրոցը",
    "marz": "Կոտայք",
    "community": "Հրազդան",
    "registry_address": "հասցե՝ ք.Հրազդան, Միկրոշրջան թաղամաս, Թիվ 9 հիմնական դպրոցը",
    "source": "cec-register",
    "savedAt": "2026-06-02T16:49:13.285Z"
  },
  "10/21": {
    "precinct": "10/21",
    "lat": 40.153389,
    "lng": 44.514259,
    "station": "Գյուղատնտեսական քոլեջ Բուռնազյան փող. հ.143",
    "marz": "Երևան",
    "community": "Էրեբունի",
    "registry_address": "Գյուղատնտեսական քոլեջ Բուռնազյան փող. հ.143",
    "source": "cec-register",
    "savedAt": "2026-06-02T17:20:38.693Z"
  },
  "10/7": {
    "precinct": "10/7",
    "lat": 40.161875,
    "lng": 44.524678,
    "station": "Հ.66 մանկապարտեզ Սարի Թաղի 7-րդ փող. հ. 15",
    "marz": "Երևան",
    "community": "Էրեբունի",
    "registry_address": "Հ.66 մանկապարտեզ Սարի Թաղի 7-րդ փող. հ. 15",
    "source": "cec-register",
    "savedAt": "2026-06-02T16:49:13.285Z"
  },
  "10/17": {
    "precinct": "10/17",
    "lat": 40.145288,
    "lng": 44.52975,
    "station": "«Երևանի Ա. Իսահակյանի անվան հ.16 ավագ դպրոց» ՊՈԱԿ, Նոր Արեշի 9-րդ փող. հ.54",
    "marz": "Երևան",
    "community": "Էրեբունի",
    "registry_address": "«Երևանի Ա. Իսահակյանի անվան հ.16 ավագ դպրոց» ՊՈԱԿ, Նոր Արեշի 9-րդ փող. հ.54",
    "source": "cec-register",
    "savedAt": "2026-06-02T16:46:53.483Z"
  },
  "31/16": {
    "precinct": "31/16",
    "lat": 40.814473797343844,
    "lng": 43.81514590223486,
    "station": "Մուշ զարգացման կենտրոն Մուշ-2 թղմ. 12",
    "marz": "Շիրակ",
    "community": "Գյումրի",
    "registry_address": "Մուշ զարգացման կենտրոն Մուշ-2 թղմ. 12",
    "source": "cec-register",
    "savedAt": "2026-06-02T18:09:24.207Z"
  },
  "2/26": {
    "precinct": "2/26",
    "lat": 40.177056,
    "lng": 44.561278,
    "station": "Նախկին հ.22 մանկապարտեզ, Հ.Ավետիսյան 5/1",
    "marz": "Երևան",
    "community": "Նոր Նորք",
    "registry_address": "Նախկին հ.22 մանկապարտեզ, Հ.Ավետիսյան 5/1",
    "source": "cec-register",
    "savedAt": "2026-06-02T17:00:40.276Z"
  },
  "36/4": {
    "precinct": "36/4",
    "lat": 39.76092805783498,
    "lng": 45.328036172677805,
    "station": "Ռելեի գործարանի հասարակական տարածք, ք. Եղեգնաձոր, Շահումյան փողոց, 20 շենք",
    "marz": "Վայոց ձոր",
    "community": "Եղեգնաձոր",
    "registry_address": "Ռելեի գործարանի հասարակական տարածք, ք. Եղեգնաձոր, Շահումյան փողոց, 20 շենք",
    "source": "cec-register",
    "savedAt": "2026-06-02T18:09:24.206Z"
  },
  "4/50": {
    "precinct": "4/50",
    "lat": 40.19511,
    "lng": 44.487846,
    "station": "Հ.27 մանկապարտեզ  Կիևյան 7",
    "marz": "Երևան",
    "community": "Արաբկիր",
    "registry_address": "Հ.27 մանկապարտեզ  Կիևյան 7",
    "source": "cec-register",
    "savedAt": "2026-06-02T16:49:13.285Z"
  },
  "3/5": {
    "precinct": "3/5",
    "lat": 40.222529,
    "lng": 44.536822,
    "station": "Ս․Շահմուրադյանի անվ․ հ․85 հիմնական դպրոց  Ծարավ աղբյուր 21Ա",
    "marz": "Երևան",
    "community": "Քանաքեռ-Զեյթուն",
    "registry_address": "Ս․Շահմուրադյանի անվ․ հ․85 հիմնական դպրոց  Ծարավ աղբյուր 21Ա",
    "source": "cec-register",
    "savedAt": "2026-06-02T18:09:24.206Z"
  },
  "2/57": {
    "precinct": "2/57",
    "lat": 40.200651,
    "lng": 44.562499,
    "station": "«Երևանի Թ. Կրպեյանի անվան հ.62 ավագ դպրոց» ՊՈԱԿ, Նանսենի 6",
    "marz": "Երևան",
    "community": "Նոր Նորք",
    "registry_address": "«Երևանի Թ. Կրպեյանի անվան հ.62 ավագ դպրոց» ՊՈԱԿ, Նանսենի 6",
    "source": "cec-register",
    "savedAt": "2026-06-02T18:52:36.841Z"
  },
  "8/8": {
    "precinct": "8/8",
    "lat": 40.146419,
    "lng": 44.494686,
    "station": "«Երևանի Լեոյի անվան հ. 65 ավագ դպրոց» ՊՈԱԿ, Ֆրունզեի 56",
    "marz": "Երևան",
    "community": "Շենգավիթ",
    "registry_address": "«Երևանի Լեոյի անվան հ. 65 ավագ դպրոց» ՊՈԱԿ, Ֆրունզեի 56",
    "source": "cec-register",
    "savedAt": "2026-06-02T18:52:36.840Z"
  },
  "8/59": {
    "precinct": "8/59",
    "lat": 40.120993,
    "lng": 44.474615,
    "station": "«Երևանի հ. 98 հիմնական դպրոց» ՊՈԱԿ, Վ. Ենգիբարյան փողոց /Նորագավիթ 1 փ./ 97",
    "marz": "Երևան",
    "community": "Շենգավիթ",
    "registry_address": "«Երևանի հ. 98 հիմնական դպրոց» ՊՈԱԿ, Վ. Ենգիբարյան փողոց /Նորագավիթ 1 փ./ 97",
    "source": "cec-register",
    "savedAt": "2026-06-02T18:52:36.841Z"
  },
  "35/55": {
    "precinct": "35/55",
    "lat": 39.145717,
    "lng": 46.151447,
    "station": "«Քաջարանի մշակույթի պալատ ՀՈԱԿ Լեռնագործների փողոց, թիվ 2 շենք",
    "marz": "Սյունիք",
    "community": "Քաջարան",
    "registry_address": "«Քաջարանի մշակույթի պալատ ՀՈԱԿ Լեռնագործների փողոց, թիվ 2 շենք",
    "source": "cec-register",
    "savedAt": "2026-06-02T18:52:36.840Z"
  },
  "9/26": {
    "precinct": "9/26",
    "lat": 40.17968,
    "lng": 44.509213,
    "station": "Չարենցի անվան թիվ 67 դպրոց, Ամիրյան 9",
    "marz": "Երևան",
    "community": "Կենտրոն",
    "registry_address": "Չարենցի անվան թիվ 67 դպրոց, Ամիրյան 9",
    "source": "cec-register",
    "savedAt": "2026-06-02T18:52:36.841Z"
  },
  "33/15": {
    "precinct": "33/15",
    "lat": 40.65430387930709,
    "lng": 44.04439804165861,
    "station": "Մշակույթի  տուն, 1-ին փողոց 40 շենք",
    "marz": "Շիրակ",
    "community": "Արթիկ",
    "registry_address": "Մշակույթի  տուն, 1-ին փողոց 40 շենք",
    "source": "cec-register",
    "savedAt": "2026-06-02T16:49:13.286Z"
  },
  "16/28": {
    "precinct": "16/28",
    "lat": 40.123052,
    "lng": 43.966953,
    "station": "միջնակարգ  դպրոցի շենք /7-րդ փ. 38/",
    "marz": "Արմավիր",
    "community": "Արմավիր",
    "registry_address": "միջնակարգ  դպրոցի շենք /7-րդ փ. 38/",
    "source": "cec-register",
    "savedAt": "2026-06-02T18:52:36.840Z"
  },
  "18/15": {
    "precinct": "18/15",
    "lat": 40.273370251585014,
    "lng": 44.26696047160197,
    "station": "Միջնակարգ  դպրոց, 1 փ., 3 շ.",
    "marz": "Արագածոտն",
    "community": "Աշտարակ",
    "registry_address": "Միջնակարգ  դպրոց, 1 փ., 3 շ.",
    "source": "cec-register",
    "savedAt": "2026-06-02T16:49:13.286Z"
  },
  "31/13": {
    "precinct": "31/13",
    "lat": 40.81530202244785,
    "lng": 43.81363541792857,
    "station": "Թիվ 23 միջն. դպրոց-1 Մուշ-2 թաղ.",
    "marz": "Շիրակ",
    "community": "Գյումրի",
    "registry_address": "Թիվ 23 միջն. դպրոց-1 Մուշ-2 թաղ.",
    "source": "cec-register",
    "savedAt": "2026-06-02T16:49:13.286Z"
  },
  "2/25": {
    "precinct": "2/25",
    "lat": 40.177441,
    "lng": 44.562384,
    "station": "«Երևանի Յ. Լեփսիուսի անվան հ.88 հիմնական դպրոց» ՊՈԱԿ, Կարախանյան 11",
    "marz": "Երևան",
    "community": "Նոր Նորք",
    "registry_address": "«Երևանի Յ. Լեփսիուսի անվան հ.88 հիմնական դպրոց» ՊՈԱԿ, Կարախանյան 11",
    "source": "cec-register",
    "savedAt": "2026-06-02T18:58:59.396Z"
  },
  "14/63": {
    "precinct": "14/63",
    "lat": 40.16207518242235,
    "lng": 44.432252849327554,
    "station": "Թաիրովի  մանկապարտեզ, Վ.Մամիկոնյան փողոց 8",
    "marz": "Արմավիր",
    "community": "Փարաքար",
    "registry_address": "Թաիրովի  մանկապարտեզ, Վ.Մամիկոնյան փողոց 8",
    "source": "cec-register",
    "savedAt": "2026-06-02T17:28:22.650Z"
  },
  "10/19": {
    "precinct": "10/19",
    "lat": 40.154608,
    "lng": 44.511634,
    "station": "«Երևանի Հ. Կարապենցի անվան հ.6 հիմնական դպրոց» ՊՈԱԿ Սասունցի Դավթի փող. հ.2",
    "marz": "Երևան",
    "community": "Էրեբունի",
    "registry_address": "«Երևանի Հ. Կարապենցի անվան հ.6 հիմնական դպրոց» ՊՈԱԿ Սասունցի Դավթի փող. հ.2",
    "source": "cec-register",
    "savedAt": "2026-06-02T16:49:13.286Z"
  },
  "16/19": {
    "precinct": "16/19",
    "lat": 40.18399636797243,
    "lng": 44.00401051901953,
    "station": "միջնակարգ դպրոցի շենք / Հ.Ավետիսյան փ. 37/",
    "marz": "Արմավիր",
    "community": "Արմավիր",
    "registry_address": "միջնակարգ դպրոցի շենք / Հ.Ավետիսյան փ. 37/",
    "source": "cec-register",
    "savedAt": "2026-06-02T17:00:40.276Z"
  },
  "26/32": {
    "precinct": "26/32",
    "lat": 40.54186011563344,
    "lng": 44.77440970460841,
    "station": "հասցե՝ ք.Հրազդան, Միկրոշրջան  թաղամաս  13-րդ փողոց  16/1, ԵՄՄՈՒԿ-ի շենքի ճակատային  մասը,",
    "marz": "Կոտայք",
    "community": "Հրազդան",
    "registry_address": "հասցե՝ ք.Հրազդան, Միկրոշրջան  թաղամաս  13-րդ փողոց  16/1, ԵՄՄՈՒԿ-ի շենքի ճակատային  մասը,",
    "source": "cec-register",
    "savedAt": "2026-06-02T16:49:13.286Z"
  },
  "14/17": {
    "precinct": "14/17",
    "lat": 40.15718115377577,
    "lng": 44.30179811211686,
    "station": "Թիվ 9 հիմնական դպրոց, Դավիթ Անհաղթի  27/1",
    "marz": "Արմավիր",
    "community": "Վաղարշապատ",
    "registry_address": "Թիվ 9 հիմնական դպրոց, Դավիթ Անհաղթի  27/1",
    "source": "cec-register",
    "savedAt": "2026-06-02T16:49:13.286Z"
  },
  "4/6": {
    "precinct": "4/6",
    "lat": 40.209421,
    "lng": 44.523111,
    "station": "Կ.Սարաջյանի անվան երաժշտ. դպրոց, Մամիկոնյանց 34Բ",
    "marz": "Երևան",
    "community": "Արաբկիր",
    "registry_address": "Կ.Սարաջյանի անվան երաժշտ. դպրոց, Մամիկոնյանց 34Բ",
    "source": "cec-register",
    "savedAt": "2026-06-02T18:52:36.841Z"
  },
  "7/39": {
    "precinct": "7/39",
    "lat": 40.175813,
    "lng": 44.441133,
    "station": "Թիվ 97 մանկապարտեզ, Սվաճյան 16",
    "marz": "Երևան",
    "community": "Մալաթիա-Սեբաստիա",
    "registry_address": "Թիվ 97 մանկապարտեզ, Սվաճյան 16",
    "source": "cec-register",
    "savedAt": "2026-06-02T18:23:54.667Z"
  },
  "35/42": {
    "precinct": "35/42",
    "lat": 39.286374,
    "lng": 46.39212,
    "station": "Վարչական կենտրոնի շենք 2-րդ փողոց, շենք 65",
    "marz": "Սյունիք",
    "community": "Կապան",
    "registry_address": "Վարչական կենտրոնի շենք 2-րդ փողոց, շենք 65",
    "source": "cec-register",
    "savedAt": "2026-06-01T16:45:37.186Z"
  },
  "36/3": {
    "precinct": "36/3",
    "lat": 39.76176736159096,
    "lng": 45.33663951343581,
    "station": "Թիվ 1 հիմնական դպրոց, ք. Եղեգնաձոր, Վ.Գևորգյան փ., շ. 4",
    "marz": "Վայոց ձոր",
    "community": "Եղեգնաձոր",
    "registry_address": "Թիվ 1 հիմնական դպրոց, ք. Եղեգնաձոր, Վ.Գևորգյան փ., շ. 4",
    "source": "cec-register",
    "savedAt": "2026-06-02T18:52:36.840Z"
  },
  "24/10": {
    "precinct": "24/10",
    "lat": 41.054485,
    "lng": 44.61535,
    "station": "Oձունի թիվ 1 միջնակարգ դպրոց, փողոց 5, փակուղի 4, շենք 10",
    "marz": "Լոռի",
    "community": "Ալավերդի",
    "registry_address": "Oձունի թիվ 1 միջնակարգ դպրոց, փողոց 5, փակուղի 4, շենք 10",
    "source": "cec-register",
    "savedAt": "2026-06-01T16:45:37.186Z"
  },
  "21/48": {
    "precinct": "21/48",
    "lat": 40.181002,
    "lng": 45.736341,
    "station": "Վարդենիսի Մհեր Մկրտչյանի անվան մշակույթի պալատ,    Ռոմանի փ. շ 10",
    "marz": "Գեղարքունիք",
    "community": "Վարդենիս",
    "registry_address": "Վարդենիսի Մհեր Մկրտչյանի անվան մշակույթի պալատ,    Ռոմանի փ. շ 10",
    "source": "cec-register",
    "savedAt": "2026-06-01T16:45:37.186Z"
  },
  "36/7": {
    "precinct": "36/7",
    "lat": 39.73375635189633,
    "lng": 45.3824636523262,
    "station": "Թիվ 1 միջնակարգ դպրոց, գ.Մալիշկա, փ.8., շ. 76",
    "marz": "Վայոց ձոր",
    "community": "Եղեգնաձոր",
    "registry_address": "Թիվ 1 միջնակարգ դպրոց, գ.Մալիշկա, փ.8., շ. 76",
    "source": "cec-register",
    "savedAt": "2026-06-02T17:12:29.959Z"
  },
  "4/52": {
    "precinct": "4/52",
    "lat": 40.192958,
    "lng": 44.489681,
    "station": "«Երևանի Հ. Գալստյանի անվան հ.83 ավագ դպրոց» ՊՈԱԿ, Օրբելի եղբայրների 63",
    "marz": "Երևան",
    "community": "Արաբկիր",
    "registry_address": "«Երևանի Հ. Գալստյանի անվան հ.83 ավագ դպրոց» ՊՈԱԿ, Օրբելի եղբայրների 63",
    "source": "cec-register",
    "savedAt": "2026-06-01T16:45:37.186Z"
  },
  "25/10": {
    "precinct": "25/10",
    "lat": 41.008771,
    "lng": 44.392067,
    "station": "փ. Մ. Մաշտոցի շենք 17 թիվ 4 մանկապարտեզ",
    "marz": "Լոռի",
    "community": "Ստեփանավան",
    "registry_address": "փ. Մ. Մաշտոցի շենք 17 թիվ 4 մանկապարտեզ",
    "source": "cec-register",
    "savedAt": "2026-06-02T18:58:59.396Z"
  },
  "15/59": {
    "precinct": "15/59",
    "lat": 40.089719,
    "lng": 44.269259,
    "station": "Մշակույթի տուն, Խանջյան 3",
    "marz": "Արմավիր",
    "community": "Արաքս",
    "registry_address": "Մշակույթի տուն, Խանջյան 3",
    "source": "cec-register",
    "savedAt": "2026-06-01T16:45:37.186Z"
  },
  "23/26": {
    "precinct": "23/26",
    "lat": 40.79847692585984,
    "lng": 44.50980730291955,
    "station": "Վանաձորի թիվ 31 մանկապարտեզ (ք․Վանաձոր,Ներսիսյան թաղ. 6 շենք)",
    "marz": "Լոռի",
    "community": "Վանաձոր",
    "registry_address": "Վանաձորի թիվ 31 մանկապարտեզ (ք․Վանաձոր,Ներսիսյան թաղ. 6 շենք)",
    "source": "cec-register",
    "savedAt": "2026-06-01T16:45:37.186Z"
  },
  "13/26": {
    "precinct": "13/26",
    "lat": 39.879559,
    "lng": 44.645026,
    "station": "Ոսկետափի միջն․դպրոց, Երևանյան խճ․48",
    "marz": "Արարատ",
    "community": "Վեդի",
    "registry_address": "Ոսկետափի միջն․դպրոց, Երևանյան խճ․48",
    "source": "cec-register",
    "savedAt": "2026-06-02T17:35:49.516Z"
  },
  "26/23": {
    "precinct": "26/23",
    "lat": 40.54527621014555,
    "lng": 44.767107728545795,
    "station": " հասցե՝ ք.Հրազդան, Միկրոշրջան  թաղամաս 80, Թիվ 8 նախադպրոցական ուսումնական հաստատությունը",
    "marz": "Կոտայք",
    "community": "Հրազդան",
    "registry_address": "հասցե՝ ք.Հրազդան, Միկրոշրջան  թաղամաս 80, Թիվ 8 նախադպրոցական ուսումնական հաստատությունը",
    "source": "cec-register",
    "savedAt": "2026-06-01T16:45:37.186Z"
  },
  "16/3": {
    "precinct": "16/3",
    "lat": 40.149414399776816,
    "lng": 44.03544024991432,
    "station": "թիվ 4ավագ դպրոցի շենք  /Շահումյան 46/",
    "marz": "Արմավիր",
    "community": "Արմավիր",
    "registry_address": "թիվ 4ավագ դպրոցի շենք  /Շահումյան 46/",
    "source": "cec-register",
    "savedAt": "2026-06-02T17:28:22.650Z"
  },
  "37/19": {
    "precinct": "37/19",
    "lat": 41.279873,
    "lng": 44.816081,
    "station": "Միջնակարգ դպրոց, փողոց 10, շենք 1",
    "marz": "Տավուշ",
    "community": "Նոյեմբերյան",
    "registry_address": "Միջնակարգ դպրոց, փողոց 10, շենք 1",
    "source": "cec-register",
    "savedAt": "2026-06-01T16:45:37.186Z"
  },
  "20/4": {
    "precinct": "20/4",
    "lat": 40.544734049258814,
    "lng": 44.95132877916259,
    "station": "Սևանի ավագ դպրոց Աբովյան փողոց, շենք 6",
    "marz": "Գեղարքունիք",
    "community": "Սեվան",
    "registry_address": "Սևանի ավագ դպրոց Աբովյան փողոց, շենք 6",
    "source": "cec-register",
    "savedAt": "2026-06-02T18:23:54.674Z"
  },
  "2/27": {
    "precinct": "2/27",
    "lat": 40.176836,
    "lng": 44.565617,
    "station": "Հ. 117 մսուր-մանկապարտեզ, Կարախանյան 21",
    "marz": "Երևան",
    "community": "Նոր Նորք",
    "registry_address": "Հ. 117 մսուր-մանկապարտեզ, Կարախանյան 21",
    "source": "cec-register",
    "savedAt": "2026-06-02T18:23:54.674Z"
  },
  "29/2": {
    "precinct": "29/2",
    "lat": 40.28123465436964,
    "lng": 44.63980462266986,
    "station": "Թիվ 7 մանկապարտեզ, 4մ/շ 15/9",
    "marz": "Կոտայք",
    "community": "Աբովյան",
    "registry_address": "Թիվ 7 մանկապարտեզ, 4մ/շ 15/9",
    "source": "cec-register",
    "savedAt": "2026-06-02T18:52:36.841Z"
  },
  "13/12": {
    "precinct": "13/12",
    "lat": 39.912909,
    "lng": 44.724522,
    "station": "Վեդի քաղաքային գեղարվեստի դպրոց Թումանյան  փողոց 5",
    "marz": "Արարատ",
    "community": "Վեդի",
    "registry_address": "Վեդի քաղաքային գեղարվեստի դպրոց Թումանյան  փողոց 5",
    "source": "cec-register",
    "savedAt": "2026-06-02T17:52:50.151Z"
  },
  "7/51": {
    "precinct": "7/51",
    "lat": 40.1723,
    "lng": 44.447662,
    "station": "Թիվ 191 դպրոց, Անդրանիկի 83",
    "marz": "Երևան",
    "community": "Մալաթիա-Սեբաստիա",
    "registry_address": "Թիվ 191 դպրոց, Անդրանիկի 83",
    "source": "cec-register",
    "savedAt": "2026-06-02T18:23:54.674Z"
  },
  "37/32": {
    "precinct": "37/32",
    "lat": 40.989863,
    "lng": 45.155052,
    "station": "Միջնակարգ դպրոց, փողոց 6, թիվ 4",
    "marz": "Տավուշ",
    "community": "Իջեվան",
    "registry_address": "Միջնակարգ դպրոց, փողոց 6, թիվ 4",
    "source": "cec-register",
    "savedAt": "2026-06-02T17:52:50.151Z"
  },
  "38/39": {
    "precinct": "38/39",
    "lat": 40.880677,
    "lng": 45.39364,
    "station": "Բերդի  Երաժշտական դպրոց, Սայաթ-Նովա 1/1",
    "marz": "Տավուշ",
    "community": "Բերդ",
    "registry_address": "Բերդի  Երաժշտական դպրոց, Սայաթ-Նովա 1/1",
    "source": "cec-register",
    "savedAt": "2026-06-02T16:39:55.605Z"
  },
  "16/10": {
    "precinct": "16/10",
    "lat": 40.16310827682786,
    "lng": 44.03678153944465,
    "station": "թիվ 3 հիմնական դպրոցի շենք / Կոմիտաս 27/",
    "marz": "Արմավիր",
    "community": "Արմավիր",
    "registry_address": "թիվ 3 հիմնական դպրոցի շենք / Կոմիտաս 27/",
    "source": "cec-register",
    "savedAt": "2026-06-02T17:35:49.516Z"
  },
  "8/1": {
    "precinct": "8/1",
    "lat": 40.15731,
    "lng": 44.502309,
    "station": "Երևանի Փ. Թերլեմեզյանի անվան գեղարվեստի պետական քոլեջ ՊՈԱԿ, Արշակունյաց 39",
    "marz": "Երևան",
    "community": "Շենգավիթ",
    "registry_address": "Երևանի Փ. Թերլեմեզյանի անվան գեղարվեստի պետական քոլեջ ՊՈԱԿ, Արշակունյաց 39",
    "source": "cec-register",
    "savedAt": "2026-06-02T18:23:54.672Z"
  },
  "29/39": {
    "precinct": "29/39",
    "lat": 40.13858,
    "lng": 44.784436,
    "station": "Գողթի միջն դպրոց, 5-րդ փողոց թիվ 12",
    "marz": "Կոտայք",
    "community": "Գառնի",
    "registry_address": "Գողթի միջն դպրոց, 5-րդ փողոց թիվ 12",
    "source": "cec-register",
    "savedAt": "2026-06-02T16:39:55.605Z"
  },
  "31/11": {
    "precinct": "31/11",
    "lat": 40.826697821770416,
    "lng": 43.826505252274565,
    "station": "«Ֆոտոն» վարժարան  Չարենցի  12/1",
    "marz": "Շիրակ",
    "community": "Գյումրի",
    "registry_address": "«Ֆոտոն» վարժարան  Չարենցի  12/1",
    "source": "cec-register",
    "savedAt": "2026-06-02T16:39:55.605Z"
  },
  "20/40": {
    "precinct": "20/40",
    "lat": 40.50246869083127,
    "lng": 45.27209891235314,
    "station": "Շողակաթի միջնակարգ դպրոց փողոց 10, շենք 1/1",
    "marz": "Գեղարքունիք",
    "community": "Ճամբարակ",
    "registry_address": "Շողակաթի միջնակարգ դպրոց փողոց 10, շենք 1/1",
    "source": "cec-register",
    "savedAt": "2026-06-02T16:39:55.605Z"
  },
  "27/2": {
    "precinct": "27/2",
    "lat": 40.27598964655471,
    "lng": 44.477107381686636,
    "station": "Թիվ 3 հիմնական դպրոց (1-ին մասնաշենք), Երևանյան փող․, 7/2 շ․",
    "marz": "Կոտայք",
    "community": "Նաիրի",
    "registry_address": "Թիվ 3 հիմնական դպրոց (1-ին մասնաշենք), Երևանյան փող․, 7/2 շ․",
    "source": "cec-register",
    "savedAt": "2026-06-02T18:23:54.673Z"
  },
  "18/29": {
    "precinct": "18/29",
    "lat": 40.38222686139752,
    "lng": 43.8715786920799,
    "station": "Թալինի թիվ 3 մանկապարտեզ, Գայի փ., 10 շ.",
    "marz": "Արագածոտն",
    "community": "Թալին",
    "registry_address": "Թալինի թիվ 3 մանկապարտեզ, Գայի փ., 10 շ.",
    "source": "cec-register",
    "savedAt": "2026-06-02T18:09:24.206Z"
  },
  "15/17": {
    "precinct": "15/17",
    "lat": 40.040692,
    "lng": 44.064767,
    "station": "Միջնակարգ դպրոց, 17-րդ փողոց  33 շենք",
    "marz": "Արմավիր",
    "community": "Մեծամոր",
    "registry_address": "Միջնակարգ դպրոց, 17-րդ փողոց  33 շենք",
    "source": "cec-register",
    "savedAt": "2026-06-02T16:39:55.605Z"
  },
  "1/11": {
    "precinct": "1/11",
    "lat": 40.21204786,
    "lng": 44.56849081,
    "station": "Նախկին 7մ/մ, Ավան-Առինջ թաղ. 1մ/շ 3/14",
    "marz": "Երևան",
    "community": "Ավան",
    "registry_address": "Նախկին 7մ/մ, Ավան-Առինջ թաղ. 1մ/շ 3/14",
    "source": "cec-register",
    "savedAt": "2026-06-02T17:00:40.276Z"
  },
  "17/69": {
    "precinct": "17/69",
    "lat": 40.719526,
    "lng": 44.207032,
    "station": "Ծիլքարի Խ. Ասլանյանի անվ. միջնակարգ դպրոց, 12 փողոց, շենք 8",
    "marz": "Արագածոտն",
    "community": "Ծաղկահովիտ",
    "registry_address": "Ծիլքարի Խ. Ասլանյանի անվ. միջնակարգ դպրոց, 12 փողոց, շենք 8",
    "source": "cec-register",
    "savedAt": "2026-06-02T17:52:50.151Z"
  },
  "10/48": {
    "precinct": "10/48",
    "lat": 40.127636,
    "lng": 44.52995,
    "station": "Հ.73 մանկապարտեզ Խաղաղ Դոնի փող. հ.5",
    "marz": "Երևան",
    "community": "Էրեբունի",
    "registry_address": "Հ.73 մանկապարտեզ Խաղաղ Դոնի փող. հ.5",
    "source": "cec-register",
    "savedAt": "2026-06-02T16:39:55.605Z"
  },
  "19/37": {
    "precinct": "19/37",
    "lat": 40.139605,
    "lng": 45.189149,
    "station": "Մշակույթի կենտրոն 1-ին փ. Թիվ 49",
    "marz": "Գեղարքունիք",
    "community": "Մարտունի",
    "registry_address": "Մշակույթի կենտրոն 1-ին փ. Թիվ 49",
    "source": "cec-register",
    "savedAt": "2026-06-02T18:23:54.667Z"
  },
  "9/59": {
    "precinct": "9/59",
    "lat": 40.189277,
    "lng": 44.512839,
    "station": "Գրողների միության վարչություն, Բաղրամյան 3",
    "marz": "Երևան",
    "community": "Կենտրոն",
    "registry_address": "Գրողների միության վարչություն, Բաղրամյան 3",
    "source": "cec-register",
    "savedAt": "2026-06-02T18:23:54.673Z"
  },
  "2/19": {
    "precinct": "2/19",
    "lat": 40.181165,
    "lng": 44.567828,
    "station": "«Երևանի հ.159 ավագ դպրոց» ՊՈԱԿ, Մ. Գալշոյան փ.",
    "marz": "Երևան",
    "community": "Նոր Նորք",
    "registry_address": "«Երևանի հ.159 ավագ դպրոց» ՊՈԱԿ, Մ. Գալշոյան փ.",
    "source": "cec-register",
    "savedAt": "2026-06-02T18:09:24.207Z"
  },
  "18/39": {
    "precinct": "18/39",
    "lat": 40.297726,
    "lng": 43.76509,
    "station": "Հիմնական դպրոց, Բաղրամյան փ., 7 շ",
    "marz": "Արագածոտն",
    "community": "Թալին",
    "registry_address": "Հիմնական դպրոց, Բաղրամյան փ., 7 շ",
    "source": "cec-register",
    "savedAt": "2026-06-02T16:39:55.605Z"
  },
  "8/41": {
    "precinct": "8/41",
    "lat": 40.136269,
    "lng": 44.488623,
    "station": "«Երևանի Գ. Զոհրապի անվան հ.97 ավագ դպրոց» ՊՈԱԿ, Ա. Խոստիկյան փ. /Ն. Շենգավիթի 12 փ./ 12",
    "marz": "Երևան",
    "community": "Շենգավիթ",
    "registry_address": "«Երևանի Գ. Զոհրապի անվան հ.97 ավագ դպրոց» ՊՈԱԿ, Ա. Խոստիկյան փ. /Ն. Շենգավիթի 12 փ./ 12",
    "source": "cec-register",
    "savedAt": "2026-06-02T18:23:54.668Z"
  },
  "15/27": {
    "precinct": "15/27",
    "lat": 40.033595,
    "lng": 44.183106,
    "station": "Միջնակարգ դպրոց, 6/1 փողոց  2 շենք",
    "marz": "Արմավիր",
    "community": "Մեծամոր",
    "registry_address": "Միջնակարգ դպրոց, 6/1 փողոց  2 շենք",
    "source": "cec-register",
    "savedAt": "2026-06-02T16:39:55.605Z"
  },
  "33/16": {
    "precinct": "33/16",
    "lat": 40.66042448469133,
    "lng": 44.01946451180799,
    "station": "Մշակույթի տուն, 1-ին փողոց 35 շենք",
    "marz": "Շիրակ",
    "community": "Արթիկ",
    "registry_address": "Մշակույթի տուն, 1-ին փողոց 35 շենք",
    "source": "cec-register",
    "savedAt": "2026-06-02T18:09:24.207Z"
  },
  "9/1": {
    "precinct": "9/1",
    "lat": 40.186634,
    "lng": 44.535774,
    "station": "Արմենակ Արմենակյան փողոց 125 Ջրային հիմնահարցերի և հիդրոտեխ. ինստիտուտ",
    "marz": "Երևան",
    "community": "Նորք-Մարաշ",
    "registry_address": "Արմենակ Արմենակյան փողոց 125 Ջրային հիմնահարցերի և հիդրոտեխ. ինստիտուտ",
    "source": "cec-register",
    "savedAt": "2026-06-02T18:52:36.840Z"
  },
  "4/4": {
    "precinct": "4/4",
    "lat": 40.223778,
    "lng": 44.528705,
    "station": "Հ.6 գրադարան, Քանաքեռ ՀԷԿ 4/1",
    "marz": "Երևան",
    "community": "Արաբկիր",
    "registry_address": "Հ.6 գրադարան, Քանաքեռ ՀԷԿ 4/1",
    "source": "cec-register",
    "savedAt": "2026-06-02T18:52:36.841Z"
  },
  "12/6": {
    "precinct": "12/6",
    "lat": 39.95829433955663,
    "lng": 44.5513303606461,
    "station": "Արարատ Գոլեցյանի անվ.թիվ 1 դպրոց,Մարքսի 13",
    "marz": "Արարատ",
    "community": "Արտաշատ",
    "registry_address": "Արարատ Գոլեցյանի անվ.թիվ 1 դպրոց,Մարքսի 13",
    "source": "cec-register",
    "savedAt": "2026-06-02T16:39:55.605Z"
  },
  "2/39": {
    "precinct": "2/39",
    "lat": 40.203396,
    "lng": 44.5674,
    "station": "«Երևանի Ն. Սաֆարյանի անվան հ.164 հիմնական դպրոց Թոթովենցի 7",
    "marz": "Երևան",
    "community": "Նոր Նորք",
    "registry_address": "«Երևանի Ն. Սաֆարյանի անվան հ.164 հիմնական դպրոց Թոթովենցի 7",
    "source": "cec-register",
    "savedAt": "2026-06-02T18:52:36.840Z"
  },
  "7/7": {
    "precinct": "7/7",
    "lat": 40.164068,
    "lng": 44.445458,
    "station": "Թիվ 190 դպրոց, Բաբաջանյան  133/3",
    "marz": "Երևան",
    "community": "Մալաթիա-Սեբաստիա",
    "registry_address": "Թիվ 190 դպրոց, Բաբաջանյան  133/3",
    "source": "cec-register",
    "savedAt": "2026-06-02T18:09:24.207Z"
  },
  "11/42": {
    "precinct": "11/42",
    "lat": 40.073301,
    "lng": 44.397769,
    "station": "Միջնակարգ դպրոց, Րաֆֆու փողոց, թիվ 5",
    "marz": "Արարատ",
    "community": "Մասիս",
    "registry_address": "Միջնակարգ դպրոց, Րաֆֆու փողոց, թիվ 5",
    "source": "cec-register",
    "savedAt": "2026-06-02T16:39:55.605Z"
  },
  "27/19": {
    "precinct": "27/19",
    "lat": 40.234091723725,
    "lng": 44.45113271055946,
    "station": "Թիվ 1 միջնակարգ դպրոց, Ս․Ջալալյան փող․, 1 շ․",
    "marz": "Կոտայք",
    "community": "Նաիրի",
    "registry_address": "Թիվ 1 միջնակարգ դպրոց, Ս․Ջալալյան փող․, 1 շ․",
    "source": "cec-register",
    "savedAt": "2026-06-02T16:39:55.605Z"
  },
  "4/37": {
    "precinct": "4/37",
    "lat": 40.208292,
    "lng": 44.499228,
    "station": "Վ․ Փափազյան 27",
    "marz": "Երևան",
    "community": "Արաբկիր",
    "registry_address": "Վ․ Փափազյան 27",
    "source": "cec-register",
    "savedAt": "2026-06-02T16:46:53.482Z"
  },
  "12/36": {
    "precinct": "12/36",
    "lat": 40.018298,
    "lng": 44.583103,
    "station": "Դվինի մշակույթի տուն, Լ․ Ազգալդյան 15",
    "marz": "Արարատ",
    "community": "Արտաշատ",
    "registry_address": "Դվինի մշակույթի տուն, Լ․ Ազգալդյան 15",
    "source": "cec-register",
    "savedAt": "2026-06-02T16:46:53.483Z"
  },
  "9/17": {
    "precinct": "9/17",
    "lat": 40.176045,
    "lng": 44.503271,
    "station": "Թիվ 4 ՆՈՒՀ, Գր. Լուսավորիչ 15/1",
    "marz": "Երևան",
    "community": "Կենտրոն",
    "registry_address": "Թիվ 4 ՆՈՒՀ, Գր. Լուսավորիչ 15/1",
    "source": "cec-register",
    "savedAt": "2026-06-02T16:46:53.483Z"
  },
  "8/50": {
    "precinct": "8/50",
    "lat": 40.145304,
    "lng": 44.4652,
    "station": "«Երևանի Մ. Գորգիսյանի անվան հ.158 հիմնական դպրոց» ՊՈԱԿ,  Շիրակի 2 նրբ. 5",
    "marz": "Երևան",
    "community": "Շենգավիթ",
    "registry_address": "«Երևանի Մ. Գորգիսյանի անվան հ.158 հիմնական դպրոց» ՊՈԱԿ,  Շիրակի 2 նրբ. 5",
    "source": "cec-register",
    "savedAt": "2026-06-02T18:09:24.207Z"
  },
  "4/5": {
    "precinct": "4/5",
    "lat": 40.207208,
    "lng": 44.523875,
    "station": "Հ.25 մանկապարտեզ, Շիրվանզադեի 5/1",
    "marz": "Երևան",
    "community": "Արաբկիր",
    "registry_address": "Հ.25 մանկապարտեզ, Շիրվանզադեի 5/1",
    "source": "cec-register",
    "savedAt": "2026-06-02T16:55:50.558Z"
  },
  "6/2": {
    "precinct": "6/2",
    "lat": 40.193637,
    "lng": 44.471125,
    "station": "«Երևանի Պեյո Յավորովի անվան հ․131 հիմնական դպրոց»ՊՈԱԿ, Արզումանյան 22",
    "marz": "Երևան",
    "community": "Աջափնյակ",
    "registry_address": "«Երևանի Պեյո Յավորովի անվան հ․131 հիմնական դպրոց»ՊՈԱԿ, Արզումանյան 22",
    "source": "cec-register",
    "savedAt": "2026-06-02T18:52:36.841Z"
  },
  "24/20": {
    "precinct": "24/20",
    "lat": 41.091909680636746,
    "lng": 44.65295445513853,
    "station": "«Ալավերդի համայնքի թիվ 4 մանկապարտեզ» ՀՈԱԿ-ի շենք, Սանահին Սարահարթ թաղամաս, Գայի փողոց, շենք 1-/11/1",
    "marz": "Լոռի",
    "community": "Ալավերդի",
    "registry_address": "«Ալավերդի համայնքի թիվ 4 մանկապարտեզ» ՀՈԱԿ-ի շենք, Սանահին Սարահարթ թաղամաս, Գայի փողոց, շենք 1-/11/1",
    "source": "cec-register",
    "savedAt": "2026-06-02T16:55:50.558Z"
  },
  "20/10": {
    "precinct": "20/10",
    "lat": 40.55681545095713,
    "lng": 44.95323827481166,
    "station": "Սևանի  թիվ 6 Մ/Դ  Խորհուրդների փողոց,  շենք 8",
    "marz": "Գեղարքունիք",
    "community": "Սեվան",
    "registry_address": "Սևանի  թիվ 6 Մ/Դ  Խորհուրդների փողոց,  շենք 8",
    "source": "cec-register",
    "savedAt": "2026-06-02T16:55:50.558Z"
  },
  "18/7": {
    "precinct": "18/7",
    "lat": 40.340154,
    "lng": 44.270858,
    "station": "Միջնակարգ դպրոց, 1 փ., 1 փակ., 1 շ.",
    "marz": "Արագածոտն",
    "community": "Աշտարակ",
    "registry_address": "Միջնակարգ դպրոց, 1 փ., 1 փակ., 1 շ.",
    "source": "cec-register",
    "savedAt": "2026-06-02T16:55:50.558Z"
  },
  "9/13": {
    "precinct": "9/13",
    "lat": 40.164546,
    "lng": 44.511983,
    "station": "Թիվ 17 ՆՈՒՀ, Տիգրան Մեծի 36 ա",
    "marz": "Երևան",
    "community": "Կենտրոն",
    "registry_address": "Թիվ 17 ՆՈՒՀ, Տիգրան Մեծի 36 ա",
    "source": "cec-register",
    "savedAt": "2026-06-02T18:52:36.841Z"
  },
  "35/37": {
    "precinct": "35/37",
    "lat": 39.203701,
    "lng": 46.473251,
    "station": "Մանկապարտեզի շենք Վերին թաղ, շենք 20",
    "marz": "Սյունիք",
    "community": "Կապան",
    "registry_address": "Մանկապարտեզի շենք Վերին թաղ, շենք 20",
    "source": "cec-register",
    "savedAt": "2026-06-02T18:52:36.841Z"
  },
  "28/10": {
    "precinct": "28/10",
    "lat": 40.28456745477785,
    "lng": 44.53818760227737,
    "station": "Միջնակարգ դպրոց, 2 փողոց 1 փկղ. 1",
    "marz": "Կոտայք",
    "community": "Նոր Հաճըն",
    "registry_address": "Միջնակարգ դպրոց, 2 փողոց 1 փկղ. 1",
    "source": "cec-register",
    "savedAt": "2026-06-02T18:52:36.840Z"
  },
  "8/47": {
    "precinct": "8/47",
    "lat": 40.150161,
    "lng": 44.452538,
    "station": "«Երևանի Ս. Հովսեփյանի անվան հ.115 ավագ դպրոց» ՊՈԱԿ, Շիրակի 74",
    "marz": "Երևան",
    "community": "Շենգավիթ",
    "registry_address": "«Երևանի Ս. Հովսեփյանի անվան հ.115 ավագ դպրոց» ՊՈԱԿ, Շիրակի 74",
    "source": "cec-register",
    "savedAt": "2026-06-02T17:35:49.516Z"
  },
  "20/27": {
    "precinct": "20/27",
    "lat": 40.59769017424742,
    "lng": 45.35542399262394,
    "station": "Ճամբարակի ավագ դպրոց  Գ Նժդեհի փողոց, շենք 128",
    "marz": "Գեղարքունիք",
    "community": "Ճամբարակ",
    "registry_address": "Ճամբարակի ավագ դպրոց  Գ Նժդեհի փողոց, շենք 128",
    "source": "cec-register",
    "savedAt": "2026-06-02T18:52:36.840Z"
  },
  "1/20": {
    "precinct": "1/20",
    "lat": 40.217007,
    "lng": 44.552211,
    "station": "ԵՊՀ մասնաճյուղ Ծարավ Աղբյուրի 55",
    "marz": "Երևան",
    "community": "Ավան",
    "registry_address": "ԵՊՀ մասնաճյուղ Ծարավ Աղբյուրի 55",
    "source": "cec-register",
    "savedAt": "2026-06-02T18:09:24.206Z"
  },
  "17/29": {
    "precinct": "17/29",
    "lat": 40.590247,
    "lng": 44.357042,
    "station": "Ապարանի արվեստի դպրոց, Գ. Նժդեհի  փողոց, շենք 12",
    "marz": "Արագածոտն",
    "community": "Ապարան",
    "registry_address": "Ապարանի արվեստի դպրոց, Գ. Նժդեհի  փողոց, շենք 12",
    "source": "cec-register",
    "savedAt": "2026-06-02T18:52:36.841Z"
  },
  "16/13": {
    "precinct": "16/13",
    "lat": 40.155031683395165,
    "lng": 44.025153260989114,
    "station": "Արևիկ սրճարանի շենք  /Բաղրամյան 4/5/",
    "marz": "Արմավիր",
    "community": "Արմավիր",
    "registry_address": "Արևիկ սրճարանի շենք  /Բաղրամյան 4/5/",
    "source": "cec-register",
    "savedAt": "2026-06-02T18:23:54.672Z"
  },
  "32/34": {
    "precinct": "32/34",
    "lat": 40.78541974847964,
    "lng": 43.852023996875445,
    "station": "Թիվ 25 հիմնական դպրոց Պուշկինի փ. 101:",
    "marz": "Շիրակ",
    "community": "Գյումրի",
    "registry_address": "Թիվ 25 հիմնական դպրոց Պուշկինի փ. 101:",
    "source": "cec-register",
    "savedAt": "2026-06-02T18:52:36.841Z"
  },
  "21/24": {
    "precinct": "21/24",
    "lat": 40.12773635100899,
    "lng": 45.37855092138091,
    "station": "Զոլաքարի մշակույթի տուն, 2 փող. շենք 9",
    "marz": "Գեղարքունիք",
    "community": "Մարտունի",
    "registry_address": "Զոլաքարի մշակույթի տուն, 2 փող. շենք 9",
    "source": "cec-register",
    "savedAt": "2026-06-02T16:55:50.558Z"
  },
  "2/37": {
    "precinct": "2/37",
    "lat": 40.172167,
    "lng": 44.569599,
    "station": "«Երևանի հ.198 ավագ դպրոց» ՊՈԱԿ, Վիլնյուսի 13/1",
    "marz": "Երևան",
    "community": "Նոր Նորք",
    "registry_address": "«Երևանի հ.198 ավագ դպրոց» ՊՈԱԿ, Վիլնյուսի 13/1",
    "source": "cec-register",
    "savedAt": "2026-06-02T18:09:24.206Z"
  },
  "7/20": {
    "precinct": "7/20",
    "lat": 40.183345,
    "lng": 44.446168,
    "station": "Թիվ 162 դպրոց , Անդրանիկի 4",
    "marz": "Երևան",
    "community": "Մալաթիա-Սեբաստիա",
    "registry_address": "Թիվ 162 դպրոց , Անդրանիկի 4",
    "source": "cec-register",
    "savedAt": "2026-06-02T18:52:36.841Z"
  },
  "10/47": {
    "precinct": "10/47",
    "lat": 40.12754768,
    "lng": 44.52529249,
    "station": "Հ.72 մանկապարտեզ Խաղաղ Դոնի փող. հ.21",
    "marz": "Երևան",
    "community": "Էրեբունի",
    "registry_address": "Հ.72 մանկապարտեզ Խաղաղ Դոնի փող. հ.21",
    "source": "cec-register",
    "savedAt": "2026-06-02T18:52:36.841Z"
  },
  "36/50": {
    "precinct": "36/50",
    "lat": 39.81635153737737,
    "lng": 45.67032997993937,
    "station": "<<Զատիկ>>մանկապարտեզ, ք.Ջերմուկ, Ձախափնյակ փող. 2, շ. 3",
    "marz": "Վայոց ձոր",
    "community": "Ջերմուկ",
    "registry_address": "<<Զատիկ>>մանկապարտեզ, ք.Ջերմուկ, Ձախափնյակ փող. 2, շ. 3",
    "source": "cec-register",
    "savedAt": "2026-06-02T16:55:50.558Z"
  },
  "6/49": {
    "precinct": "6/49",
    "lat": 40.190158,
    "lng": 44.47744,
    "station": "«Երևանի  հ․ 38  մսուր-մանկապարտեզ» ՀՈԱԿ, Քըրք Քըրքորյան 4Ա (Լենինգրադյան 4Ա)",
    "marz": "Երևան",
    "community": "Աջափնյակ",
    "registry_address": "«Երևանի  հ․ 38  մսուր-մանկապարտեզ» ՀՈԱԿ, Քըրք Քըրքորյան 4Ա (Լենինգրադյան 4Ա)",
    "source": "cec-register",
    "savedAt": "2026-06-02T18:09:24.207Z"
  },
  "6/12": {
    "precinct": "6/12",
    "lat": 40.202997,
    "lng": 44.473596,
    "station": "«Երևանի հ․102 հիմնական դպրոց»ՊՈԱԿ, Ֆուչիկի 2 նրբ․ 11",
    "marz": "Երևան",
    "community": "Աջափնյակ",
    "registry_address": "«Երևանի հ․102 հիմնական դպրոց»ՊՈԱԿ, Ֆուչիկի 2 նրբ․ 11",
    "source": "cec-register",
    "savedAt": "2026-06-02T18:09:24.207Z"
  },
  "9/56": {
    "precinct": "9/56",
    "lat": 40.168966,
    "lng": 44.493941,
    "station": "Հիդրոպոնիկայի պրոբլ. ինստ., Նորագյուղ 108",
    "marz": "Երևան",
    "community": "Կենտրոն",
    "registry_address": "Հիդրոպոնիկայի պրոբլ. ինստ., Նորագյուղ 108",
    "source": "cec-register",
    "savedAt": "2026-06-02T17:52:50.150Z"
  },
  "36/8": {
    "precinct": "36/8",
    "lat": 39.744833431894435,
    "lng": 45.389382344108775,
    "station": "Մալիշկայի Մ.Վ.Լոմոնոսովի անվան միջնակարգ դպրոց, գ. Մալիշկա, փ. 37, շ.19",
    "marz": "Վայոց ձոր",
    "community": "Եղեգնաձոր",
    "registry_address": "Մալիշկայի Մ.Վ.Լոմոնոսովի անվան միջնակարգ դպրոց, գ. Մալիշկա, փ. 37, շ.19",
    "source": "cec-register",
    "savedAt": "2026-06-02T18:52:36.841Z"
  },
  "26/35": {
    "precinct": "26/35",
    "lat": 40.58166025257802,
    "lng": 44.75438380673043,
    "station": "հասցե՝ ք.Հրազդան, Կաքավաձոր թաղամաս, 1-ին  փողոց 4, Թիվ 7 միջնակարգ դպրոցը",
    "marz": "Կոտայք",
    "community": "Հրազդան",
    "registry_address": "հասցե՝ ք.Հրազդան, Կաքավաձոր թաղամաս, 1-ին  փողոց 4, Թիվ 7 միջնակարգ դպրոցը",
    "source": "cec-register",
    "savedAt": "2026-06-02T17:03:11.145Z"
  },
  "17/27": {
    "precinct": "17/27",
    "lat": 40.590247,
    "lng": 44.357042,
    "station": "Ապարանի ավագ դպրոց, Գ. Նժդեհի փողոց, շենք 2",
    "marz": "Արագածոտն",
    "community": "Ապարան",
    "registry_address": "Ապարանի ավագ դպրոց, Գ. Նժդեհի փողոց, շենք 2",
    "source": "cec-register",
    "savedAt": "2026-06-02T17:00:40.276Z"
  },
  "8/51": {
    "precinct": "8/51",
    "lat": 40.141912,
    "lng": 44.467569,
    "station": "Երևանի հ.135 մանկապարտեզ,  Շիրակի 4/4",
    "marz": "Երևան",
    "community": "Շենգավիթ",
    "registry_address": "Երևանի հ.135 մանկապարտեզ,  Շիրակի 4/4",
    "source": "cec-register",
    "savedAt": "2026-06-02T17:00:40.276Z"
  },
  "2/43": {
    "precinct": "2/43",
    "lat": 40.203066,
    "lng": 44.57158,
    "station": "«Երևանի Գ. Ստեփանյանի անվան հ.135 հիմնական դպրոց» ՊՈԱԿ, Ն. Ստեփանյան 5",
    "marz": "Երևան",
    "community": "Նոր Նորք",
    "registry_address": "«Երևանի Գ. Ստեփանյանի անվան հ.135 հիմնական դպրոց» ՊՈԱԿ, Ն. Ստեփանյան 5",
    "source": "cec-register",
    "savedAt": "2026-06-02T17:00:40.276Z"
  },
  "33/6": {
    "precinct": "33/6",
    "lat": 40.612576023913725,
    "lng": 43.95269356906004,
    "station": "«Արթիկի թիվ 8 հիմնական դպրոց» ՊՈԱԿ, Թամանյան փողոց  շենք 10",
    "marz": "Շիրակ",
    "community": "Արթիկ",
    "registry_address": "«Արթիկի թիվ 8 հիմնական դպրոց» ՊՈԱԿ, Թամանյան փողոց  շենք 10",
    "source": "cec-register",
    "savedAt": "2026-06-02T17:00:40.276Z"
  },
  "36/10": {
    "precinct": "36/10",
    "lat": 39.73740032476656,
    "lng": 45.35037067981502,
    "station": "Միջնակարգ դպրոց, գ.Ագարակաձոր, փ.1, շ.17",
    "marz": "Վայոց ձոր",
    "community": "Արենի",
    "registry_address": "Միջնակարգ դպրոց, գ.Ագարակաձոր, փ.1, շ.17",
    "source": "cec-register",
    "savedAt": "2026-06-02T17:00:40.276Z"
  },
  "31/30": {
    "precinct": "31/30",
    "lat": 40.7851283,
    "lng": 43.8426574,
    "station": "«Հայաստանի ազգային պոլիտեխնիկ համալսարան» հիմնադրամ Մ.Մկրտչյան 2",
    "marz": "Շիրակ",
    "community": "Գյումրի",
    "registry_address": "«Հայաստանի ազգային պոլիտեխնիկ համալսարան» հիմնադրամ Մ.Մկրտչյան 2",
    "source": "cec-register",
    "savedAt": "2026-06-02T17:00:40.276Z"
  },
  "18/13": {
    "precinct": "18/13",
    "lat": 40.234951,
    "lng": 44.071247,
    "station": "Մշակույթի տուն, 1 փ., 4/2 շ.",
    "marz": "Արագածոտն",
    "community": "Աշտարակ",
    "registry_address": "Մշակույթի տուն, 1 փ., 4/2 շ.",
    "source": "cec-register",
    "savedAt": "2026-06-02T18:09:24.206Z"
  },
  "36/25": {
    "precinct": "36/25",
    "lat": 39.89227624376296,
    "lng": 45.335729846918305,
    "station": "Մշակույթի տուն, գ.Հորբատեղ, Կենտրոնական փ., շ.16",
    "marz": "Վայոց ձոր",
    "community": "Եղեգիս",
    "registry_address": "Մշակույթի տուն, գ.Հորբատեղ, Կենտրոնական փ., շ.16",
    "source": "cec-register",
    "savedAt": "2026-06-02T17:00:40.276Z"
  },
  "7/46": {
    "precinct": "7/46",
    "lat": 40.16909637,
    "lng": 44.44370437,
    "station": "Թիվ 95 մանկապարտեզ, Անդրանիկի  124",
    "marz": "Երևան",
    "community": "Մալաթիա-Սեբաստիա",
    "registry_address": "Թիվ 95 մանկապարտեզ, Անդրանիկի  124",
    "source": "cec-register",
    "savedAt": "2026-06-02T17:00:40.276Z"
  },
  "16/30": {
    "precinct": "16/30",
    "lat": 40.135184,
    "lng": 43.93585,
    "station": "միջնակարգ  դպրոցի շենք Գևորգ Չաուշի 1",
    "marz": "Արմավիր",
    "community": "Բաղրամյան",
    "registry_address": "միջնակարգ  դպրոցի շենք Գևորգ Չաուշի 1",
    "source": "cec-register",
    "savedAt": "2026-06-02T17:00:40.276Z"
  },
  "14/64": {
    "precinct": "14/64",
    "lat": 40.161230624489875,
    "lng": 44.4316535838389,
    "station": "Թաիրովի մշակույթի տուն, Մայրաքաղաքաըին փողոց 106",
    "marz": "Արմավիր",
    "community": "Փարաքար",
    "registry_address": "Թաիրովի մշակույթի տուն, Մայրաքաղաքաըին փողոց 106",
    "source": "cec-register",
    "savedAt": "2026-06-02T17:00:40.276Z"
  },
  "29/48": {
    "precinct": "29/48",
    "lat": 40.18761,
    "lng": 44.620199,
    "station": "Միջնակարգ դպրոցի թիվ1 մասնաշենք, 3-րդ փողոց թիվ 5",
    "marz": "Կոտայք",
    "community": "Ջրվեժ",
    "registry_address": "Միջնակարգ դպրոցի թիվ1 մասնաշենք, 3-րդ փողոց թիվ 5",
    "source": "cec-register",
    "savedAt": "2026-06-02T17:52:50.151Z"
  },
  "7/3": {
    "precinct": "7/3",
    "lat": 40.1634278,
    "lng": 44.44384734,
    "station": "Թիվ 78 մանկապարտեզ, Բաբաջանյան 139",
    "marz": "Երևան",
    "community": "Մալաթիա-Սեբաստիա",
    "registry_address": "Թիվ 78 մանկապարտեզ, Բաբաջանյան 139",
    "source": "cec-register",
    "savedAt": "2026-06-02T17:00:40.276Z"
  },
  "26/20": {
    "precinct": "26/20",
    "lat": 40.52113153080663,
    "lng": 44.75768937585062,
    "station": "հասցե՝ ք.Հրազդան, Կենտրոն թաղամաս 57, Կոստան Զարյանի անվան մանկական արվեստի դպրոցը",
    "marz": "Կոտայք",
    "community": "Հրազդան",
    "registry_address": "հասցե՝ ք.Հրազդան, Կենտրոն թաղամաս 57, Կոստան Զարյանի անվան մանկական արվեստի դպրոցը",
    "source": "cec-register",
    "savedAt": "2026-06-02T18:23:54.673Z"
  },
  "11/15": {
    "precinct": "11/15",
    "lat": 40.066406,
    "lng": 44.447167,
    "station": "Միջնակարգ դպրոց, 4-րդ փողոց, շենք 48",
    "marz": "Արարատ",
    "community": "Մասիս",
    "registry_address": "Միջնակարգ դպրոց, 4-րդ փողոց, շենք 48",
    "source": "cec-register",
    "savedAt": "2026-06-02T17:00:40.276Z"
  },
  "36/38": {
    "precinct": "36/38",
    "lat": 39.6306,
    "lng": 45.573911,
    "station": "Մշակույթի տուն, գ.Գոմք, փ.1, շ.18",
    "marz": "Վայոց ձոր",
    "community": "Վայք",
    "registry_address": "Մշակույթի տուն, գ.Գոմք, փ.1, շ.18",
    "source": "cec-register",
    "savedAt": "2026-06-02T17:00:40.276Z"
  },
  "27/33": {
    "precinct": "27/33",
    "lat": 40.400445155908635,
    "lng": 44.639237487434954,
    "station": "ԾԻԾԵՌՆԱԿ Մ/ՄԱՆԿԱՊԱՐՏԵԶ  3-ՐԴ ԹՂՄ. 4-ՐԴ ՓՈՂՈՑ 16",
    "marz": "Կոտայք",
    "community": "Չարենցավան",
    "registry_address": "ԾԻԾԵՌՆԱԿ Մ/ՄԱՆԿԱՊԱՐՏԵԶ  3-ՐԴ ԹՂՄ. 4-ՐԴ ՓՈՂՈՑ 16",
    "source": "cec-register",
    "savedAt": "2026-06-02T17:00:40.276Z"
  },
  "35/5": {
    "precinct": "35/5",
    "lat": 39.20548012888075,
    "lng": 46.412538806099796,
    "station": "«Կապանի թիվ 3 հատուկ կրթահամալիր ՊՈԱԿ Սպանդարյան փողոց, շենք 4",
    "marz": "Սյունիք",
    "community": "Կապան",
    "registry_address": "«Կապանի թիվ 3 հատուկ կրթահամալիր ՊՈԱԿ Սպանդարյան փողոց, շենք 4",
    "source": "cec-register",
    "savedAt": "2026-06-02T17:08:34.173Z"
  },
  "27/36": {
    "precinct": "27/36",
    "lat": 40.40261435303443,
    "lng": 44.64813122504393,
    "station": "ԶԱՆԳԱԿ Մ/ՄԱՆԿԱՊԱՐՏԵԶ ՔՈՉԱՐԻ ՓՈՂՈՑ 15",
    "marz": "Կոտայք",
    "community": "Չարենցավան",
    "registry_address": "ԶԱՆԳԱԿ Մ/ՄԱՆԿԱՊԱՐՏԵԶ ՔՈՉԱՐԻ ՓՈՂՈՑ 15",
    "source": "cec-register",
    "savedAt": "2026-06-02T17:00:40.276Z"
  },
  "11/22": {
    "precinct": "11/22",
    "lat": 40.10605127,
    "lng": 44.41010763,
    "station": "Դ․ Լադոյանի անվան դպրոց, Կենտրոնական փողոց 133",
    "marz": "Արարատ",
    "community": "Մասիս",
    "registry_address": "Դ․ Լադոյանի անվան դպրոց, Կենտրոնական փողոց 133",
    "source": "cec-register",
    "savedAt": "2026-06-02T18:52:36.841Z"
  },
  "27/28": {
    "precinct": "27/28",
    "lat": 40.40114371854554,
    "lng": 44.63559637738713,
    "station": "ՎԱԶԳԵՆ Ա-Ի ԱՆՎԱՆ ԹԻՎ3 ՀԻՄՆ ԴՊՐՈՑ  ԵՐԻՏԱՍԱՐԴՈՒԹՅԱՆ  ՓՈՂՈՑ  17",
    "marz": "Կոտայք",
    "community": "Չարենցավան",
    "registry_address": "ՎԱԶԳԵՆ Ա-Ի ԱՆՎԱՆ ԹԻՎ3 ՀԻՄՆ ԴՊՐՈՑ  ԵՐԻՏԱՍԱՐԴՈՒԹՅԱՆ  ՓՈՂՈՑ  17",
    "source": "cec-register",
    "savedAt": "2026-06-02T18:52:36.840Z"
  },
  "8/46": {
    "precinct": "8/46",
    "lat": 40.141234,
    "lng": 44.436717,
    "station": "«Երևանի Հ. Շիրազի անվան հ.169 հիմնական դպրոց» ՊՈԱԿ,  Շիրակի 5 նրբ. 19",
    "marz": "Երևան",
    "community": "Շենգավիթ",
    "registry_address": "«Երևանի Հ. Շիրազի անվան հ.169 հիմնական դպրոց» ՊՈԱԿ,  Շիրակի 5 նրբ. 19",
    "source": "cec-register",
    "savedAt": "2026-06-02T17:03:11.144Z"
  },
  "6/7": {
    "precinct": "6/7",
    "lat": 40.200189,
    "lng": 44.468374,
    "station": "«Երևանի  Գուրգեն Մարգարյանի անվան հ․94 դպրոց»ՊՈԱԿ, Բաշինջաղյան 100",
    "marz": "Երևան",
    "community": "Աջափնյակ",
    "registry_address": "«Երևանի  Գուրգեն Մարգարյանի անվան հ․94 դպրոց»ՊՈԱԿ, Բաշինջաղյան 100",
    "source": "cec-register",
    "savedAt": "2026-06-02T18:52:36.841Z"
  },
  "9/6": {
    "precinct": "9/6",
    "lat": 40.173407,
    "lng": 44.540686,
    "station": "Արփենիկ Նալբանդյան փողոց, 62հասցե, Երևանի հ.157 հիմնական դպրոց ՊՈԱԿ",
    "marz": "Երևան",
    "community": "Նորք-Մարաշ",
    "registry_address": "Արփենիկ Նալբանդյան փողոց, 62հասցե, Երևանի հ.157 հիմնական դպրոց ՊՈԱԿ",
    "source": "cec-register",
    "savedAt": "2026-06-02T17:35:49.515Z"
  },
  "7/23": {
    "precinct": "7/23",
    "lat": 40.178628,
    "lng": 44.457684,
    "station": "Թիվ 92 դպրոց, Սեբաստիա 54",
    "marz": "Երևան",
    "community": "Մալաթիա-Սեբաստիա",
    "registry_address": "Թիվ 92 դպրոց, Սեբաստիա 54",
    "source": "cec-register",
    "savedAt": "2026-06-02T17:03:11.145Z"
  },
  "26/14": {
    "precinct": "26/14",
    "lat": 40.515528330372305,
    "lng": 44.75108058181747,
    "station": "հասցե՝ ք.Հրազդան, Կենտրոն թաղամաս 54, Թիվ 8 հիմնական դպրոցը",
    "marz": "Կոտայք",
    "community": "Հրազդան",
    "registry_address": "հասցե՝ ք.Հրազդան, Կենտրոն թաղամաս 54, Թիվ 8 հիմնական դպրոցը",
    "source": "cec-register",
    "savedAt": "2026-06-02T18:09:24.207Z"
  },
  "7/32": {
    "precinct": "7/32",
    "lat": 40.170582,
    "lng": 44.466707,
    "station": "Թիվ  81 մանկապարտեզ, Արարատյան 1 զ. Կուրղինյան 11/5",
    "marz": "Երևան",
    "community": "Մալաթիա-Սեբաստիա",
    "registry_address": "Թիվ  81 մանկապարտեզ, Արարատյան 1 զ. Կուրղինյան 11/5",
    "source": "cec-register",
    "savedAt": "2026-06-02T18:52:36.840Z"
  },
  "9/50": {
    "precinct": "9/50",
    "lat": 40.185417,
    "lng": 44.518515,
    "station": "Ն. Աղբալյանի անվան թիվ 19 դպրոց, Տերյան 54",
    "marz": "Երևան",
    "community": "Կենտրոն",
    "registry_address": "Ն. Աղբալյանի անվան թիվ 19 դպրոց, Տերյան 54",
    "source": "cec-register",
    "savedAt": "2026-06-02T17:03:11.145Z"
  },
  "16/2": {
    "precinct": "16/2",
    "lat": 40.1518868818539,
    "lng": 44.03494755699307,
    "station": "թիվ 5 հիմնական դպրոցի շենք /Հանրապետության 29/",
    "marz": "Արմավիր",
    "community": "Արմավիր",
    "registry_address": "թիվ 5 հիմնական դպրոցի շենք /Հանրապետության 29/",
    "source": "cec-register",
    "savedAt": "2026-06-02T17:03:11.145Z"
  },
  "16/12": {
    "precinct": "16/12",
    "lat": 40.15723336781644,
    "lng": 44.027398966729564,
    "station": "թիվ 4 մանկապարտեզի շենք  /Մաշտոցի 32/",
    "marz": "Արմավիր",
    "community": "Արմավիր",
    "registry_address": "թիվ 4 մանկապարտեզի շենք  /Մաշտոցի 32/",
    "source": "cec-register",
    "savedAt": "2026-06-02T18:23:54.674Z"
  },
  "10/54": {
    "precinct": "10/54",
    "lat": 40.085223,
    "lng": 44.546684,
    "station": "«Երևանի հ.175 միջնակարգ դպրոց» ՊՈԱԿ , Նուբարաշեն 11 փողոց, հ.2",
    "marz": "Երևան",
    "community": "Նուբարաշեն",
    "registry_address": "«Երևանի հ.175 միջնակարգ դպրոց» ՊՈԱԿ , Նուբարաշեն 11 փողոց, հ.2",
    "source": "cec-register",
    "savedAt": "2026-06-02T17:03:11.145Z"
  },
  "21/28": {
    "precinct": "21/28",
    "lat": 40.13833427866201,
    "lng": 45.4316816091111,
    "station": "Վարդենիկի Կրթահամալիր, 4 փող. շենք 67",
    "marz": "Գեղարքունիք",
    "community": "Մարտունի",
    "registry_address": "Վարդենիկի Կրթահամալիր, 4 փող. շենք 67",
    "source": "cec-register",
    "savedAt": "2026-06-02T17:03:11.145Z"
  },
  "35/17": {
    "precinct": "35/17",
    "lat": 39.216045924426346,
    "lng": 46.37017266420704,
    "station": "«Կապանի թիվ 13 ՆՈՒՀ ՀՈԱԿ-ի շենքի բարեգործական ճաշարան Ձորք թաղամաս, շենք 20",
    "marz": "Սյունիք",
    "community": "Կապան",
    "registry_address": "«Կապանի թիվ 13 ՆՈՒՀ ՀՈԱԿ-ի շենքի բարեգործական ճաշարան Ձորք թաղամաս, շենք 20",
    "source": "cec-register",
    "savedAt": "2026-06-02T17:52:50.150Z"
  },
  "3/22": {
    "precinct": "3/22",
    "lat": 40.201923,
    "lng": 44.538943,
    "station": "Մ․Մանուշյանի անվ․ հ․48 հիմնական դպրոց  Դրոյի 11",
    "marz": "Երևան",
    "community": "Քանաքեռ-Զեյթուն",
    "registry_address": "Մ․Մանուշյանի անվ․ հ․48 հիմնական դպրոց  Դրոյի 11",
    "source": "cec-register",
    "savedAt": "2026-06-02T18:09:24.206Z"
  },
  "8/13": {
    "precinct": "8/13",
    "lat": 40.1519,
    "lng": 44.488999,
    "station": "«Երևանի Վ. Համբարձումյանի անվան հ.12 հիմնական դպրոց» ՊՈԱԿ, Գ.Նժդեհ 11",
    "marz": "Երևան",
    "community": "Շենգավիթ",
    "registry_address": "«Երևանի Վ. Համբարձումյանի անվան հ.12 հիմնական դպրոց» ՊՈԱԿ, Գ.Նժդեհ 11",
    "source": "cec-register",
    "savedAt": "2026-06-02T18:52:36.840Z"
  },
  "18/17": {
    "precinct": "18/17",
    "lat": 40.277626,
    "lng": 44.297411,
    "station": "Մանկապարտեզի շենք, Արագածի փ., 11 նրբ., 1 շ.",
    "marz": "Արագածոտն",
    "community": "Աշտարակ",
    "registry_address": "Մանկապարտեզի շենք, Արագածի փ., 11 նրբ., 1 շ.",
    "source": "cec-register",
    "savedAt": "2026-06-02T17:52:50.151Z"
  },
  "26/29": {
    "precinct": "26/29",
    "lat": 40.54565938887719,
    "lng": 44.77352346497696,
    "station": "հասցե՝ ք.Հրազդան, Միկրոշրջան  թաղամաս 5-րդ փողոց 9, Թիվ 10 ավագ դպրոցը",
    "marz": "Կոտայք",
    "community": "Հրազդան",
    "registry_address": "հասցե՝ ք.Հրազդան, Միկրոշրջան  թաղամաս 5-րդ փողոց 9, Թիվ 10 ավագ դպրոցը",
    "source": "cec-register",
    "savedAt": "2026-06-02T18:09:24.207Z"
  },
  "6/13": {
    "precinct": "6/13",
    "lat": 40.20337951,
    "lng": 44.47427054,
    "station": "«Երևանի հ․43 մսուր-մանկապարտեզ» ՀՈԱԿ, Ֆուչիկի 2 նրբ․ 9",
    "marz": "Երևան",
    "community": "Աջափնյակ",
    "registry_address": "«Երևանի հ․43 մսուր-մանկապարտեզ» ՀՈԱԿ, Ֆուչիկի 2 նրբ․ 9",
    "source": "cec-register",
    "savedAt": "2026-06-02T17:03:11.145Z"
  },
  "10/1": {
    "precinct": "10/1",
    "lat": 40.161334,
    "lng": 44.511684,
    "station": "«Երևանի Վ. Տերյանի անվան հ.60 հիմնական դպրոց» ՊՈԱԿ, Տ. Մեծի պող. հ.42",
    "marz": "Երևան",
    "community": "Էրեբունի",
    "registry_address": "«Երևանի Վ. Տերյանի անվան հ.60 հիմնական դպրոց» ՊՈԱԿ, Տ. Մեծի պող. հ.42",
    "source": "cec-register",
    "savedAt": "2026-06-02T17:03:11.145Z"
  },
  "19/25": {
    "precinct": "19/25",
    "lat": 40.32588,
    "lng": 45.112329,
    "station": "Մշակույթի տուն, Բաղրամյան 2",
    "marz": "Գեղարքունիք",
    "community": "Գավառ",
    "registry_address": "Մշակույթի տուն, Բաղրամյան 2",
    "source": "cec-register",
    "savedAt": "2026-06-02T17:03:11.145Z"
  },
  "38/21": {
    "precinct": "38/21",
    "lat": 40.878669,
    "lng": 45.142945,
    "station": "Իջևանի ավագ դպրոց, Թատերական փող․ թիվ 3",
    "marz": "Տավուշ",
    "community": "Իջեվան",
    "registry_address": "Իջևանի ավագ դպրոց, Թատերական փող․ թիվ 3",
    "source": "cec-register",
    "savedAt": "2026-06-02T17:25:32.312Z"
  },
  "5/2": {
    "precinct": "5/2",
    "lat": 40.215912,
    "lng": 44.475785,
    "station": "«Երևանի Աշոտ Մանուկյանի անվան հ.93 միջնակարգ դպրոց» ՊՈԱԿ սեփ. սեկտոր, Աշոտ Մանուկյան փողոց /Դավթաշեն 5-րդ փողոց/",
    "marz": "Երևան",
    "community": "Դավթաշեն",
    "registry_address": "«Երևանի Աշոտ Մանուկյանի անվան հ.93 միջնակարգ դպրոց» ՊՈԱԿ սեփ. սեկտոր, Աշոտ Մանուկյան փողոց /Դավթաշեն 5-րդ փողոց/",
    "source": "cec-register",
    "savedAt": "2026-06-02T17:05:56.428Z"
  },
  "23/12": {
    "precinct": "23/12",
    "lat": 40.79576416845632,
    "lng": 44.511074794395924,
    "station": "Վանաձորի Գևորգ Չաուշի անվան N 24 միջնակարգ դպրոց (ք․Վանաձոր, Ներսիսյան փ. 6 շենք)",
    "marz": "Լոռի",
    "community": "Վանաձոր",
    "registry_address": "Վանաձորի Գևորգ Չաուշի անվան N 24 միջնակարգ դպրոց (ք․Վանաձոր, Ներսիսյան փ. 6 շենք)",
    "source": "cec-register",
    "savedAt": "2026-06-02T17:52:50.150Z"
  },
  "29/12": {
    "precinct": "29/12",
    "lat": 40.268380202492196,
    "lng": 44.62909145675854,
    "station": "Աբովյանի համայնքային գրադարան, Տարտուի փողոց 1/24",
    "marz": "Կոտայք",
    "community": "Աբովյան",
    "registry_address": "Աբովյանի համայնքային գրադարան, Տարտուի փողոց 1/24",
    "source": "cec-register",
    "savedAt": "2026-06-02T17:05:56.428Z"
  },
  "4/9": {
    "precinct": "4/9",
    "lat": 40.209218,
    "lng": 44.515235,
    "station": "«Երևանի Հ. Պողոսյանի անվան հ.82 հիմնական դպրոց» ՊՈԱԿ, Մամիկոնյանց 33",
    "marz": "Երևան",
    "community": "Արաբկիր",
    "registry_address": "«Երևանի Հ. Պողոսյանի անվան հ.82 հիմնական դպրոց» ՊՈԱԿ, Մամիկոնյանց 33",
    "source": "cec-register",
    "savedAt": "2026-06-02T17:05:56.428Z"
  },
  "10/34": {
    "precinct": "10/34",
    "lat": 40.14015,
    "lng": 44.534409,
    "station": "«Երևանի Պ. Սևակի անվան հ.123 հիմնական դպրոց» ՊՈԱԿ Նոր Արեշի 35-րդ փող. հ.2",
    "marz": "Երևան",
    "community": "Էրեբունի",
    "registry_address": "«Երևանի Պ. Սևակի անվան հ.123 հիմնական դպրոց» ՊՈԱԿ Նոր Արեշի 35-րդ փող. հ.2",
    "source": "cec-register",
    "savedAt": "2026-06-02T18:52:36.840Z"
  },
  "29/1": {
    "precinct": "29/1",
    "lat": 40.28177178077134,
    "lng": 44.64014740975581,
    "station": "Թիվ 7 մանկապարտեզ, 4մ/շ 15/9",
    "marz": "Կոտայք",
    "community": "Աբովյան",
    "registry_address": "Թիվ 7 մանկապարտեզ, 4մ/շ 15/9",
    "source": "cec-register",
    "savedAt": "2026-06-02T18:52:36.841Z"
  },
  "24/48": {
    "precinct": "24/48",
    "lat": 40.93573629382944,
    "lng": 44.77371828180735,
    "station": "Լորուտի հանդիսությունների սրահի շենք, 1-ին փողոց, շ․14",
    "marz": "Լոռի",
    "community": "Թումանյան",
    "registry_address": "Լորուտի հանդիսությունների սրահի շենք, 1-ին փողոց, շ․14",
    "source": "cec-register",
    "savedAt": "2026-06-02T18:52:36.840Z"
  },
  "30/47": {
    "precinct": "30/47",
    "lat": 40.870436,
    "lng": 43.753231,
    "station": "«Կապսի միջնակարգ դպրոց» ՊՈԱԿ 11փ․ 10շ",
    "marz": "Շիրակ",
    "community": "Ախուրյան",
    "registry_address": "«Կապսի միջնակարգ դպրոց» ՊՈԱԿ 11փ․ 10շ",
    "source": "cec-register",
    "savedAt": "2026-06-02T17:05:56.429Z"
  },
  "38/9": {
    "precinct": "38/9",
    "lat": 40.742355,
    "lng": 44.871653,
    "station": "Շահումյան 6 «Թիվ 4 հիմնական դպրոց» ՊՈԱԿ",
    "marz": "Տավուշ",
    "community": "Դիլիջան",
    "registry_address": "Շահումյան 6 «Թիվ 4 հիմնական դպրոց» ՊՈԱԿ",
    "source": "cec-register",
    "savedAt": "2026-06-02T17:05:56.429Z"
  },
  "36/6": {
    "precinct": "36/6",
    "lat": 39.778589,
    "lng": 45.34572,
    "station": "Գլաձորի մշակույթի տուն, գ.Գլաձոր ,11-րդ փողոց, շ.9",
    "marz": "Վայոց ձոր",
    "community": "Եղեգնաձոր",
    "registry_address": "Գլաձորի մշակույթի տուն, գ.Գլաձոր ,11-րդ փողոց, շ.9",
    "source": "cec-register",
    "savedAt": "2026-06-02T17:52:50.151Z"
  },
  "24/43": {
    "precinct": "24/43",
    "lat": 41.002273535019654,
    "lng": 44.648963599566954,
    "station": "Թումանյանի մշակույթի պալատի շենք , 3-րդ փողոց, շ․2",
    "marz": "Լոռի",
    "community": "Թումանյան",
    "registry_address": "Թումանյանի մշակույթի պալատի շենք , 3-րդ փողոց, շ․2",
    "source": "cec-register",
    "savedAt": "2026-06-02T17:05:56.429Z"
  },
  "14/5": {
    "precinct": "14/5",
    "lat": 40.16829810846453,
    "lng": 44.32314572448836,
    "station": "Թիվ 7 «Զվարթնոց» մանկապարտեզ, Արագածի զանգված 20",
    "marz": "Արմավիր",
    "community": "Վաղարշապատ",
    "registry_address": "Թիվ 7 «Զվարթնոց» մանկապարտեզ, Արագածի զանգված 20",
    "source": "cec-register",
    "savedAt": "2026-06-02T17:05:56.429Z"
  },
  "13/4": {
    "precinct": "13/4",
    "lat": 39.851912,
    "lng": 44.69802,
    "station": "Շահումյան 28, թիվ 3 մանկապարտեզ",
    "marz": "Արարատ",
    "community": "Արարատ",
    "registry_address": "Շահումյան 28, թիվ 3 մանկապարտեզ",
    "source": "cec-register",
    "savedAt": "2026-06-02T17:05:56.429Z"
  },
  "23/17": {
    "precinct": "23/17",
    "lat": 40.795723557473394,
    "lng": 44.52769389991532,
    "station": "Վանաձորի Վ. Համբարձումյանի անվան N25 հիմնական դպրոց (ք․ Վանաձոր Վ.Համբարձումյան փ. 25/1 շենք)",
    "marz": "Լոռի",
    "community": "Վանաձոր",
    "registry_address": "Վանաձորի Վ. Համբարձումյանի անվան N25 հիմնական դպրոց (ք․ Վանաձոր Վ.Համբարձումյան փ. 25/1 շենք)",
    "source": "cec-register",
    "savedAt": "2026-06-02T17:05:56.429Z"
  },
  "9/47": {
    "precinct": "9/47",
    "lat": 40.182508,
    "lng": 44.512349,
    "station": "Չայկովսկու անվան երաժշտական դպրոց, Կողբացի 36",
    "marz": "Երևան",
    "community": "Կենտրոն",
    "registry_address": "Չայկովսկու անվան երաժշտական դպրոց, Կողբացի 36",
    "source": "cec-register",
    "savedAt": "2026-06-02T17:35:49.516Z"
  },
  "21/33": {
    "precinct": "21/33",
    "lat": 40.152899630450726,
    "lng": 45.50698031496884,
    "station": "Արծվանիստի միջնակարգ դպրոց, 16 փ, 10",
    "marz": "Գեղարքունիք",
    "community": "Մարտունի",
    "registry_address": "Արծվանիստի միջնակարգ դպրոց, 16 փ, 10",
    "source": "cec-register",
    "savedAt": "2026-06-02T18:52:36.840Z"
  },
  "6/43": {
    "precinct": "6/43",
    "lat": 40.212566,
    "lng": 44.434518,
    "station": "«Երևանի հ․108 միջնակարգ դպրոց» ՊՈԱԿ, Սահակ Պարթևի փ․ (Սիլիկյան 10)",
    "marz": "Երևան",
    "community": "Աջափնյակ",
    "registry_address": "«Երևանի հ․108 միջնակարգ դպրոց» ՊՈԱԿ, Սահակ Պարթևի փ․ (Սիլիկյան 10)",
    "source": "cec-register",
    "savedAt": "2026-06-02T17:05:56.429Z"
  },
  "23/13": {
    "precinct": "23/13",
    "lat": 40.79672258044242,
    "lng": 44.5300323570777,
    "station": "Վանաձորի թիվ 19 մանկապարտեզ (ք․ Վանաձոր, Սուխումի փ. 5 շենք)",
    "marz": "Լոռի",
    "community": "Վանաձոր",
    "registry_address": "Վանաձորի թիվ 19 մանկապարտեզ (ք․ Վանաձոր, Սուխումի փ. 5 շենք)",
    "source": "cec-register",
    "savedAt": "2026-06-02T17:05:56.429Z"
  },
  "2/22": {
    "precinct": "2/22",
    "lat": 40.187851,
    "lng": 44.557409,
    "station": "«Երևանի Գ. Գուրզադյանի անվան հ.163 հիմնական դպրոց» ՊՈԱԿ, Գյուրջյան 13",
    "marz": "Երևան",
    "community": "Նոր Նորք",
    "registry_address": "«Երևանի Գ. Գուրզադյանի անվան հ.163 հիմնական դպրոց» ՊՈԱԿ, Գյուրջյան 13",
    "source": "cec-register",
    "savedAt": "2026-06-02T18:09:24.207Z"
  },
  "14/61": {
    "precinct": "14/61",
    "lat": 40.16551876930418,
    "lng": 44.40465789416225,
    "station": "<<Փարաքարի միջնակարգ դպրոց>>ՊՈԱԿ , Երևանյան փողոց 37",
    "marz": "Արմավիր",
    "community": "Փարաքար",
    "registry_address": "<<Փարաքարի միջնակարգ դպրոց>>ՊՈԱԿ , Երևանյան փողոց 37",
    "source": "cec-register",
    "savedAt": "2026-06-02T17:05:56.429Z"
  },
  "6/28": {
    "precinct": "6/28",
    "lat": 40.21094917,
    "lng": 44.47029315,
    "station": "«Երևանի հ․185 հիմնական դպրոց» ՊՈԱԿ, Հ․ Բեկնազարյան 5/1",
    "marz": "Երևան",
    "community": "Աջափնյակ",
    "registry_address": "«Երևանի հ․185 հիմնական դպրոց» ՊՈԱԿ, Հ․ Բեկնազարյան 5/1",
    "source": "cec-register",
    "savedAt": "2026-06-02T18:23:54.673Z"
  },
  "20/28": {
    "precinct": "20/28",
    "lat": 40.59805268712332,
    "lng": 45.35331628495035,
    "station": "Ճամբարակի «Շանթ»  արարողությունների սրահ   Լեոի փողոց, շենք 3",
    "marz": "Գեղարքունիք",
    "community": "Ճամբարակ",
    "registry_address": "Ճամբարակի «Շանթ»  արարողությունների սրահ   Լեոի փողոց, շենք 3",
    "source": "cec-register",
    "savedAt": "2026-06-02T17:52:50.151Z"
  },
  "37/33": {
    "precinct": "37/33",
    "lat": 40.98778663195829,
    "lng": 45.15213147530189,
    "station": "Մշակույթի տուն, Հրապարակի 6",
    "marz": "Տավուշ",
    "community": "Իջեվան",
    "registry_address": "Մշակույթի տուն, Հրապարակի 6",
    "source": "cec-register",
    "savedAt": "2026-06-02T17:05:56.429Z"
  },
  "33/45": {
    "precinct": "33/45",
    "lat": 40.652052,
    "lng": 43.750905,
    "station": "Շիրակավանի միջնակարգ դպրոց, 4-րդ փողոց շենք 31",
    "marz": "Շիրակ",
    "community": "Անի",
    "registry_address": "Շիրակավանի միջնակարգ դպրոց, 4-րդ փողոց շենք 31",
    "source": "cec-register",
    "savedAt": "2026-06-02T17:05:56.429Z"
  },
  "20/5": {
    "precinct": "20/5",
    "lat": 40.54600587839608,
    "lng": 44.956838373726,
    "station": "Սևանի Ս. Զաքարյանի անվ. մշակութի պալատ Ս. Սևանեցի փողոց, շենք 4ա",
    "marz": "Գեղարքունիք",
    "community": "Սեվան",
    "registry_address": "Սևանի Ս. Զաքարյանի անվ. մշակութի պալատ Ս. Սևանեցի փողոց, շենք 4ա",
    "source": "cec-register",
    "savedAt": "2026-06-02T17:52:50.151Z"
  },
  "32/40": {
    "precinct": "32/40",
    "lat": 40.77054402842647,
    "lng": 43.85261991339026,
    "station": "«Բռնցքամարտի մանկապատանեկան մարզադպրոց»  Փանյան փ.1/2:",
    "marz": "Շիրակ",
    "community": "Գյումրի",
    "registry_address": "«Բռնցքամարտի մանկապատանեկան մարզադպրոց»  Փանյան փ.1/2:",
    "source": "cec-register",
    "savedAt": "2026-06-02T18:52:36.841Z"
  },
  "13/14": {
    "precinct": "13/14",
    "lat": 39.899975,
    "lng": 44.647719,
    "station": "Արալեզի մշակույթի տուն, Ե․Չարենցի փող․8",
    "marz": "Արարատ",
    "community": "Վեդի",
    "registry_address": "Արալեզի մշակույթի տուն, Ե․Չարենցի փող․8",
    "source": "cec-register",
    "savedAt": "2026-06-02T17:08:34.174Z"
  },
  "6/1": {
    "precinct": "6/1",
    "lat": 40.193637,
    "lng": 44.471125,
    "station": "«Երևանի Պեյո Յավորովի անվան հ․131 հիմնական դպրոց»ՊՈԱԿ, Արզումանյան 22",
    "marz": "Երևան",
    "community": "Աջափնյակ",
    "registry_address": "«Երևանի Պեյո Յավորովի անվան հ․131 հիմնական դպրոց»ՊՈԱԿ, Արզումանյան 22",
    "source": "cec-register",
    "savedAt": "2026-06-02T18:52:36.841Z"
  },
  "14/14": {
    "precinct": "14/14",
    "lat": 40.170733011194656,
    "lng": 44.29383704493549,
    "station": "Թիվ 2 «Շուշան» մանկապարտեզ, Վազգեն Առաջին 68/1",
    "marz": "Արմավիր",
    "community": "Վաղարշապատ",
    "registry_address": "Թիվ 2 «Շուշան» մանկապարտեզ, Վազգեն Առաջին 68/1",
    "source": "cec-register",
    "savedAt": "2026-06-02T17:08:34.174Z"
  },
  "5/14": {
    "precinct": "5/14",
    "lat": 40.224663,
    "lng": 44.492687,
    "station": "«Երևանի հ.59 մանկապարտեզ» ՀՈԱԿ, 2-րդ թաղամաս, 7/1",
    "marz": "Երևան",
    "community": "Դավթաշեն",
    "registry_address": "«Երևանի հ.59 մանկապարտեզ» ՀՈԱԿ, 2-րդ թաղամաս, 7/1",
    "source": "cec-register",
    "savedAt": "2026-06-02T18:23:54.674Z"
  },
  "21/49": {
    "precinct": "21/49",
    "lat": 40.181002,
    "lng": 45.736341,
    "station": "Վարդենիսի թիվ 1 մանկական երաժշտական դպրոց, Երիտասարդության փ. շ 22",
    "marz": "Գեղարքունիք",
    "community": "Վարդենիս",
    "registry_address": "Վարդենիսի թիվ 1 մանկական երաժշտական դպրոց, Երիտասարդության փ. շ 22",
    "source": "cec-register",
    "savedAt": "2026-06-02T18:52:36.841Z"
  },
  "34/10": {
    "precinct": "34/10",
    "lat": 39.533550189487165,
    "lng": 46.31526922756163,
    "station": "Մշակույթի տան շենք, գ. Վերիշեն, փ. 1, շ. 93",
    "marz": "Սյունիք",
    "community": "Գորիս",
    "registry_address": "Մշակույթի տան շենք, գ. Վերիշեն, փ. 1, շ. 93",
    "source": "cec-register",
    "savedAt": "2026-06-02T17:12:29.959Z"
  },
  "10/37": {
    "precinct": "10/37",
    "lat": 40.14106415312903,
    "lng": 44.52034807747534,
    "station": "«Երևանի Ն․ Գոգոլի անվան հ.35 հիմնական դպրոց» ՊՈԱԿ, Էրեբունու փող․ հ․ 16",
    "marz": "Երևան",
    "community": "Էրեբունի",
    "registry_address": "«Երևանի Ն․ Գոգոլի անվան հ.35 հիմնական դպրոց» ՊՈԱԿ, Էրեբունու փող․ հ․ 16",
    "source": "cec-register",
    "savedAt": "2026-06-02T17:35:49.516Z"
  },
  "2/23": {
    "precinct": "2/23",
    "lat": 40.188681,
    "lng": 44.560299,
    "station": "Մշակույթի կենտրոն, Լյուքսեմբուրգի 2-րդ նրբ., 6/9",
    "marz": "Երևան",
    "community": "Նոր Նորք",
    "registry_address": "Մշակույթի կենտրոն, Լյուքսեմբուրգի 2-րդ նրբ., 6/9",
    "source": "cec-register",
    "savedAt": "2026-06-02T17:08:34.174Z"
  },
  "8/62": {
    "precinct": "8/62",
    "lat": 40.09001071,
    "lng": 44.48320723,
    "station": "Ոչ բնակելի շինություն, մասնավոր սեփականություն, Ն.Խարբերդ թաղամաս, 2-րդ փող.,  հ.83/1",
    "marz": "Երևան",
    "community": "Շենգավիթ",
    "registry_address": "Ոչ բնակելի շինություն, մասնավոր սեփականություն, Ն.Խարբերդ թաղամաս, 2-րդ փող.,  հ.83/1",
    "source": "cec-register",
    "savedAt": "2026-06-02T17:08:34.174Z"
  },
  "17/35": {
    "precinct": "17/35",
    "lat": 40.452874,
    "lng": 44.470124,
    "station": "Երնջատափի մշակույթի տուն, 1-ին փողոց, շենք 1",
    "marz": "Արագածոտն",
    "community": "Ապարան",
    "registry_address": "Երնջատափի մշակույթի տուն, 1-ին փողոց, շենք 1",
    "source": "cec-register",
    "savedAt": "2026-06-02T17:08:34.174Z"
  },
  "24/58": {
    "precinct": "24/58",
    "lat": 40.917752804402596,
    "lng": 44.64772827540583,
    "station": "Դեբեդի հանդիսությունների սրահ 2-րդ փող., շենք 8",
    "marz": "Լոռի",
    "community": "Փամբակ",
    "registry_address": "Դեբեդի հանդիսությունների սրահ 2-րդ փող., շենք 8",
    "source": "cec-register",
    "savedAt": "2026-06-02T17:14:03.583Z"
  },
  "10/33": {
    "precinct": "10/33",
    "lat": 40.136921,
    "lng": 44.533813,
    "station": "Հ.68 մանկապարտեզ Նոր Արեշի 37փ. հ.35",
    "marz": "Երևան",
    "community": "Էրեբունի",
    "registry_address": "Հ.68 մանկապարտեզ Նոր Արեշի 37փ. հ.35",
    "source": "cec-register",
    "savedAt": "2026-06-02T18:09:24.207Z"
  },
  "38/15": {
    "precinct": "38/15",
    "lat": 40.730123,
    "lng": 45.002137,
    "station": "Մ․ Գոշի փող․ 60 «Գոշի հիմնական դպրոց» ՊՈԱԿ",
    "marz": "Տավուշ",
    "community": "Դիլիջան",
    "registry_address": "Մ․ Գոշի փող․ 60 «Գոշի հիմնական դպրոց» ՊՈԱԿ",
    "source": "cec-register",
    "savedAt": "2026-06-02T18:09:24.206Z"
  },
  "35/2": {
    "precinct": "35/2",
    "lat": 39.20393378155883,
    "lng": 46.41085073492759,
    "station": "«Կապանի թիվ 1 ՆՈՒՀ ՀՈԱԿ Շահումյան փողոց, շենք 20/1",
    "marz": "Սյունիք",
    "community": "Կապան",
    "registry_address": "«Կապանի թիվ 1 ՆՈՒՀ ՀՈԱԿ Շահումյան փողոց, շենք 20/1",
    "source": "cec-register",
    "savedAt": "2026-06-02T18:52:36.841Z"
  },
  "27/24": {
    "precinct": "27/24",
    "lat": 40.45751137595289,
    "lng": 44.64831950747993,
    "station": "ՄԻՋՆԱԿԱՐԳ ԴՊՐՈՑ 12 ՓՈՂՈՑ 5",
    "marz": "Կոտայք",
    "community": "Չարենցավան",
    "registry_address": "ՄԻՋՆԱԿԱՐԳ ԴՊՐՈՑ 12 ՓՈՂՈՑ 5",
    "source": "cec-register",
    "savedAt": "2026-06-02T18:52:36.841Z"
  },
  "17/2": {
    "precinct": "17/2",
    "lat": 40.30032061234011,
    "lng": 44.36311902611147,
    "station": "Աշտարակի „Հասմիկ” մանկապարտեզ, Ն. Աշտարակեցու փողոց, շենք 80",
    "marz": "Արագածոտն",
    "community": "Աշտարակ",
    "registry_address": "Աշտարակի „Հասմիկ” մանկապարտեզ, Ն. Աշտարակեցու փողոց, շենք 80",
    "source": "cec-register",
    "savedAt": "2026-06-02T18:52:36.840Z"
  },
  "15/23": {
    "precinct": "15/23",
    "lat": 40.109698,
    "lng": 44.182486,
    "station": "Մանկապարտեզի շենք, 3-րդ փողոց   3-րդ փակուղի 2/1",
    "marz": "Արմավիր",
    "community": "Մեծամոր",
    "registry_address": "Մանկապարտեզի շենք, 3-րդ փողոց   3-րդ փակուղի 2/1",
    "source": "cec-register",
    "savedAt": "2026-06-02T17:08:34.174Z"
  },
  "25/26": {
    "precinct": "25/26",
    "lat": 41.118346,
    "lng": 44.292956,
    "station": "փ. Կ. Դեմիրճյան 68, մշակույթի կենտրոն",
    "marz": "Լոռի",
    "community": "Տաշիր",
    "registry_address": "փ. Կ. Դեմիրճյան 68, մշակույթի կենտրոն",
    "source": "cec-register",
    "savedAt": "2026-06-02T17:08:34.174Z"
  },
  "26/13": {
    "precinct": "26/13",
    "lat": 40.50340277197443,
    "lng": 44.757211679959575,
    "station": "հասցե՝ ք.Հրազդան, Արամ Խաչատրյան 9, Արամ Խաչատրյանի անվան երաժշտական դպրոցը",
    "marz": "Կոտայք",
    "community": "Հրազդան",
    "registry_address": "հասցե՝ ք.Հրազդան, Արամ Խաչատրյան 9, Արամ Խաչատրյանի անվան երաժշտական դպրոցը",
    "source": "cec-register",
    "savedAt": "2026-06-02T17:08:34.174Z"
  },
  "2/13": {
    "precinct": "2/13",
    "lat": 40.185827,
    "lng": 44.566852,
    "station": "Հ.111 մսուր-մանկապարտեզ, Մառի 1/2",
    "marz": "Երևան",
    "community": "Նոր Նորք",
    "registry_address": "Հ.111 մսուր-մանկապարտեզ, Մառի 1/2",
    "source": "cec-register",
    "savedAt": "2026-06-02T18:58:59.395Z"
  },
  "35/28": {
    "precinct": "35/28",
    "lat": 39.322893,
    "lng": 46.490063,
    "station": "Կենցաղի շենք 1-ին փողոց, շենք 55",
    "marz": "Սյունիք",
    "community": "Կապան",
    "registry_address": "Կենցաղի շենք 1-ին փողոց, շենք 55",
    "source": "cec-register",
    "savedAt": "2026-06-02T18:52:36.841Z"
  },
  "27/12": {
    "precinct": "27/12",
    "lat": 40.35352683541226,
    "lng": 44.522672603113875,
    "station": "Հանդիսությունների սրահ, 1-ին փող․, 22 շ․",
    "marz": "Կոտայք",
    "community": "Նաիրի",
    "registry_address": "Հանդիսությունների սրահ, 1-ին փող․, 22 շ․",
    "source": "cec-register",
    "savedAt": "2026-06-02T17:10:17.344Z"
  },
  "23/43": {
    "precinct": "23/43",
    "lat": 40.814743022385976,
    "lng": 44.48499271426701,
    "station": "Վանաձորի «Լոռի» ժամանցի կենտրոն (ք․ Վանաձոր, Կ.Դեմիրճյան փ., 25/1 շենք)",
    "marz": "Լոռի",
    "community": "Վանաձոր",
    "registry_address": "Վանաձորի «Լոռի» ժամանցի կենտրոն (ք․ Վանաձոր, Կ.Դեմիրճյան փ., 25/1 շենք)",
    "source": "cec-register",
    "savedAt": "2026-06-02T17:10:17.344Z"
  },
  "3/15": {
    "precinct": "3/15",
    "lat": 40.209447,
    "lng": 44.548675,
    "station": "153 մանկապարտեզ  Լեփսիուսի 6",
    "marz": "Երևան",
    "community": "Քանաքեռ-Զեյթուն",
    "registry_address": "153 մանկապարտեզ  Լեփսիուսի 6",
    "source": "cec-register",
    "savedAt": "2026-06-02T18:09:24.207Z"
  },
  "13/38": {
    "precinct": "13/38",
    "lat": 39.833224,
    "lng": 44.667406,
    "station": "Տիգրան Մեծի փ․6   Նոյակերտ  գյուղի մշակույթի  տուն",
    "marz": "Արարատ",
    "community": "Արարատ",
    "registry_address": "Տիգրան Մեծի փ․6   Նոյակերտ  գյուղի մշակույթի  տուն",
    "source": "cec-register",
    "savedAt": "2026-06-02T17:20:38.693Z"
  },
  "14/11": {
    "precinct": "14/11",
    "lat": 40.164809568669796,
    "lng": 44.29433142959143,
    "station": "Ե.Թադևոսյանի անվան գեղարվեստի դպրոց, Սբ. Մաշտոցի 0",
    "marz": "Արմավիր",
    "community": "Վաղարշապատ",
    "registry_address": "Ե.Թադևոսյանի անվան գեղարվեստի դպրոց, Սբ. Մաշտոցի 0",
    "source": "cec-register",
    "savedAt": "2026-06-02T17:10:17.344Z"
  },
  "14/44": {
    "precinct": "14/44",
    "lat": 40.07418,
    "lng": 44.059982,
    "station": "Մշակույթի տուն, Մայիսյան փողոց 12/1",
    "marz": "Արմավիր",
    "community": "Վաղարշապատ",
    "registry_address": "Մշակույթի տուն, Մայիսյան փողոց 12/1",
    "source": "cec-register",
    "savedAt": "2026-06-02T17:10:17.344Z"
  },
  "26/39": {
    "precinct": "26/39",
    "lat": 40.466535448103656,
    "lng": 44.7143603592572,
    "station": "հասցե՝ ք.Հրազդան, բնակավայր Սոլակ, 2-րդ թաղամաս, շենք 41, Սոլակի միջնակարգ  դպրոցի  շենքը",
    "marz": "Կոտայք",
    "community": "Հրազդան",
    "registry_address": "հասցե՝ ք.Հրազդան, բնակավայր Սոլակ, 2-րդ թաղամաս, շենք 41, Սոլակի միջնակարգ  դպրոցի  շենքը",
    "source": "cec-register",
    "savedAt": "2026-06-02T17:10:17.344Z"
  },
  "23/19": {
    "precinct": "23/19",
    "lat": 40.79673882459413,
    "lng": 44.519169719024845,
    "station": "Հայաստանի ազգային ագրարային համալսարանի Վանաձորի մասնաճյուղ (ք․ վանաձոր, Ուսանողական 9 շենք)",
    "marz": "Լոռի",
    "community": "Վանաձոր",
    "registry_address": "Հայաստանի ազգային ագրարային համալսարանի Վանաձորի մասնաճյուղ (ք․ վանաձոր, Ուսանողական 9 շենք)",
    "source": "cec-register",
    "savedAt": "2026-06-02T17:10:17.344Z"
  },
  "20/23": {
    "precinct": "20/23",
    "lat": 40.63019446611604,
    "lng": 44.96584417872985,
    "station": "Ծովագյուղի Մ/Դ –ի կցակառույց 24 փողոց, 5-րդ նրբ., շենք 70",
    "marz": "Գեղարքունիք",
    "community": "Սեվան",
    "registry_address": "Ծովագյուղի Մ/Դ –ի կցակառույց 24 փողոց, 5-րդ նրբ., շենք 70",
    "source": "cec-register",
    "savedAt": "2026-06-02T17:10:17.344Z"
  },
  "7/54": {
    "precinct": "7/54",
    "lat": 40.17047771,
    "lng": 44.44753346,
    "station": "Թիվ 83 մանկապարտեզ, Անդրանիկի 97",
    "marz": "Երևան",
    "community": "Մալաթիա-Սեբաստիա",
    "registry_address": "Թիվ 83 մանկապարտեզ, Անդրանիկի 97",
    "source": "cec-register",
    "savedAt": "2026-06-02T17:10:17.344Z"
  },
  "10/36": {
    "precinct": "10/36",
    "lat": 40.1410887584084,
    "lng": 44.5203951195973,
    "station": "«Երևանի Ն․ Գոգոլի անվան հ.35 հիմնական դպրոց» ՊՈԱԿ, Էրեբունու փող․ հ․ 16",
    "marz": "Երևան",
    "community": "Էրեբունի",
    "registry_address": "«Երևանի Ն․ Գոգոլի անվան հ.35 հիմնական դպրոց» ՊՈԱԿ, Էրեբունու փող․ հ․ 16",
    "source": "cec-register",
    "savedAt": "2026-06-02T18:52:36.841Z"
  },
  "3/24": {
    "precinct": "3/24",
    "lat": 40.206505,
    "lng": 44.529612,
    "station": "Երևանի զարդարվեստի պետական արհեստագործական ուսումնարան Հ․Ներսիսյան 3",
    "marz": "Երևան",
    "community": "Քանաքեռ-Զեյթուն",
    "registry_address": "Երևանի զարդարվեստի պետական արհեստագործական ուսումնարան Հ․Ներսիսյան 3",
    "source": "cec-register",
    "savedAt": "2026-06-02T18:52:36.841Z"
  },
  "16/1": {
    "precinct": "16/1",
    "lat": 40.151243143113966,
    "lng": 44.02891107475476,
    "station": "թիվ 1ավագ դպրոցի շենք/Հունան Ավետիսյան փ4/",
    "marz": "Արմավիր",
    "community": "Արմավիր",
    "registry_address": "թիվ 1ավագ դպրոցի շենք/Հունան Ավետիսյան փ4/",
    "source": "cec-register",
    "savedAt": "2026-06-02T18:52:36.841Z"
  },
  "8/7": {
    "precinct": "8/7",
    "lat": 40.149959,
    "lng": 44.495373,
    "station": "«Երևանի Ջ. Դունայանցի անվան հ.154 հիմնական դպրոց» ՊՈԱԿ, Ֆրունզեի 4",
    "marz": "Երևան",
    "community": "Շենգավիթ",
    "registry_address": "«Երևանի Ջ. Դունայանցի անվան հ.154 հիմնական դպրոց» ՊՈԱԿ, Ֆրունզեի 4",
    "source": "cec-register",
    "savedAt": "2026-06-02T18:52:36.841Z"
  },
  "35/19": {
    "precinct": "35/19",
    "lat": 39.21715977089548,
    "lng": 46.365577009916606,
    "station": "«Կապանի թիվ 5 հիմնական դպրոց ՊՈԱԿ Բաղաբերդ թաղամաս, շենք 27",
    "marz": "Սյունիք",
    "community": "Կապան",
    "registry_address": "«Կապանի թիվ 5 հիմնական դպրոց ՊՈԱԿ Բաղաբերդ թաղամաս, շենք 27",
    "source": "cec-register",
    "savedAt": "2026-06-02T18:52:36.840Z"
  },
  "6/50": {
    "precinct": "6/50",
    "lat": 40.192743,
    "lng": 44.476043,
    "station": "«Երևանի Ալեքսանդր Բլոկի անվան հ.122 հիմնական դպրոց» ՊՈԱԿ, Արզումանյան 5",
    "marz": "Երևան",
    "community": "Աջափնյակ",
    "registry_address": "«Երևանի Ալեքսանդր Բլոկի անվան հ.122 հիմնական դպրոց» ՊՈԱԿ, Արզումանյան 5",
    "source": "cec-register",
    "savedAt": "2026-06-02T18:23:54.673Z"
  },
  "23/27": {
    "precinct": "23/27",
    "lat": 40.80369095660426,
    "lng": 44.50288793573348,
    "station": "Վանաձորի թիվ 5 մանկապարտեզ (ք․Վանաձոր, Մաշտոցի փ. 17 շենք)",
    "marz": "Լոռի",
    "community": "Վանաձոր",
    "registry_address": "Վանաձորի թիվ 5 մանկապարտեզ (ք․Վանաձոր, Մաշտոցի փ. 17 շենք)",
    "source": "cec-register",
    "savedAt": "2026-06-02T17:10:17.344Z"
  },
  "15/1": {
    "precinct": "15/1",
    "lat": 40.1435178023192,
    "lng": 44.11975801128149,
    "station": "Մշակույթի տան շենք, 1-ին թաղ․ 1/25 հասցե",
    "marz": "Արմավիր",
    "community": "Մեծամոր",
    "registry_address": "Մշակույթի տան շենք, 1-ին թաղ․ 1/25 հասցե",
    "source": "cec-register",
    "savedAt": "2026-06-02T18:23:54.666Z"
  },
  "18/66": {
    "precinct": "18/66",
    "lat": 40.369803,
    "lng": 43.985202,
    "station": "Հիմնական դպրոց 1փ., 35 շ.",
    "marz": "Արագածոտն",
    "community": "Թալին",
    "registry_address": "Հիմնական դպրոց 1փ., 35 շ.",
    "source": "cec-register",
    "savedAt": "2026-06-02T17:12:29.959Z"
  },
  "14/60": {
    "precinct": "14/60",
    "lat": 40.167611,
    "lng": 44.408875,
    "station": "<<Փարաքարի մանկապարտեզ>>ՀՈԱԿ, Ի.Գասպարյան փողոց 1",
    "marz": "Արմավիր",
    "community": "Փարաքար",
    "registry_address": "<<Փարաքարի մանկապարտեզ>>ՀՈԱԿ, Ի.Գասպարյան փողոց 1",
    "source": "cec-register",
    "savedAt": "2026-06-02T17:35:49.516Z"
  },
  "6/29": {
    "precinct": "6/29",
    "lat": 40.21094917,
    "lng": 44.47029315,
    "station": "«Երևանի հ․185 հիմնական դպրոց» ՊՈԱԿ, Հ․ Բեկնազարյան 5/1",
    "marz": "Երևան",
    "community": "Աջափնյակ",
    "registry_address": "«Երևանի հ․185 հիմնական դպրոց» ՊՈԱԿ, Հ․ Բեկնազարյան 5/1",
    "source": "cec-register",
    "savedAt": "2026-06-02T17:12:29.959Z"
  },
  "14/36": {
    "precinct": "14/36",
    "lat": 40.166853,
    "lng": 44.21644,
    "station": "Միջնակարգ դպրոց, 20 փողոց 22 շենք",
    "marz": "Արմավիր",
    "community": "Վաղարշապատ",
    "registry_address": "Միջնակարգ դպրոց, 20 փողոց 22 շենք",
    "source": "cec-register",
    "savedAt": "2026-06-02T18:52:36.840Z"
  },
  "12/45": {
    "precinct": "12/45",
    "lat": 39.973264,
    "lng": 44.535474,
    "station": "Մրգավանի միջն. դպրոց,Ավ. Իսահակյան 45/1",
    "marz": "Արարատ",
    "community": "Արտաշատ",
    "registry_address": "Մրգավանի միջն. դպրոց,Ավ. Իսահակյան 45/1",
    "source": "cec-register",
    "savedAt": "2026-06-02T18:09:24.207Z"
  },
  "10/42": {
    "precinct": "10/42",
    "lat": 40.15077573,
    "lng": 44.50216058,
    "station": "Հասմիկ Հովակիմյան Ա/Ձ տարածք Գարեգին Նժդեհի փող. հ.58",
    "marz": "Երևան",
    "community": "Էրեբունի",
    "registry_address": "Հասմիկ Հովակիմյան Ա/Ձ տարածք Գարեգին Նժդեհի փող. հ.58",
    "source": "cec-register",
    "savedAt": "2026-06-02T18:52:36.840Z"
  },
  "6/10": {
    "precinct": "6/10",
    "lat": 40.196949,
    "lng": 44.470897,
    "station": "«Երևանի  Ռաֆայել Իշխանյանի անվան հ․153 հիմնական դպրոց»ՊՈԱԿ, Առաքելյան 47",
    "marz": "Երևան",
    "community": "Աջափնյակ",
    "registry_address": "«Երևանի  Ռաֆայել Իշխանյանի անվան հ․153 հիմնական դպրոց»ՊՈԱԿ, Առաքելյան 47",
    "source": "cec-register",
    "savedAt": "2026-06-02T18:52:36.840Z"
  },
  "6/30": {
    "precinct": "6/30",
    "lat": 40.21026896,
    "lng": 44.46924101,
    "station": "«Երևանի Գևորգ Չաուշի անվան հ․ 188 հիմնական դպրոց» ՊՈԱԿ, Բեկնազարյան 5",
    "marz": "Երևան",
    "community": "Աջափնյակ",
    "registry_address": "«Երևանի Գևորգ Չաուշի անվան հ․ 188 հիմնական դպրոց» ՊՈԱԿ, Բեկնազարյան 5",
    "source": "cec-register",
    "savedAt": "2026-06-02T17:12:29.959Z"
  },
  "13/36": {
    "precinct": "13/36",
    "lat": 39.836543,
    "lng": 44.625124,
    "station": "Եղեգնավանի միջն․ դպրոց Խանջյան փող․12",
    "marz": "Արարատ",
    "community": "Վեդի",
    "registry_address": "Եղեգնավանի միջն․ դպրոց Խանջյան փող․12",
    "source": "cec-register",
    "savedAt": "2026-06-02T17:12:29.959Z"
  },
  "8/29": {
    "precinct": "8/29",
    "lat": 40.150522,
    "lng": 44.482095,
    "station": "Երևանի հ. 136 մանկապարտեզ, Բագրատունյաց 16",
    "marz": "Երևան",
    "community": "Շենգավիթ",
    "registry_address": "Երևանի հ. 136 մանկապարտեզ, Բագրատունյաց 16",
    "source": "cec-register",
    "savedAt": "2026-06-02T17:17:00.095Z"
  },
  "17/12": {
    "precinct": "17/12",
    "lat": 40.38625582100219,
    "lng": 44.38213121044099,
    "station": "Արտաշավանի Գ․ Ասատրյանի անվ․ միջնակարգ դպրոց, 2-րդ փողոց, 7 շենք",
    "marz": "Արագածոտն",
    "community": "Աշտարակ",
    "registry_address": "Արտաշավանի Գ․ Ասատրյանի անվ․ միջնակարգ դպրոց, 2-րդ փողոց, 7 շենք",
    "source": "cec-register",
    "savedAt": "2026-06-02T17:12:29.959Z"
  },
  "5/16": {
    "precinct": "5/16",
    "lat": 40.221335,
    "lng": 44.498622,
    "station": "«Երևանի Հենրիկ Խաչատրյանի անվան հ.199 հիմնական դպրոց» ՊՈԱԿ, 4-րդ թաղամաս",
    "marz": "Երևան",
    "community": "Դավթաշեն",
    "registry_address": "«Երևանի Հենրիկ Խաչատրյանի անվան հ.199 հիմնական դպրոց» ՊՈԱԿ, 4-րդ թաղամաս",
    "source": "cec-register",
    "savedAt": "2026-06-02T18:23:54.673Z"
  },
  "6/27": {
    "precinct": "6/27",
    "lat": 40.207492,
    "lng": 44.473986,
    "station": "«Երևանի Վիլյամ Սարոյանի անվան հ․138 հիմնական դպրոց» ՊՈԱԿ, Մարգարյան  փ․ 30Ա",
    "marz": "Երևան",
    "community": "Աջափնյակ",
    "registry_address": "«Երևանի Վիլյամ Սարոյանի անվան հ․138 հիմնական դպրոց» ՊՈԱԿ, Մարգարյան  փ․ 30Ա",
    "source": "cec-register",
    "savedAt": "2026-06-02T18:52:36.840Z"
  },
  "35/1": {
    "precinct": "35/1",
    "lat": 39.2016557670397,
    "lng": 46.4164732345193,
    "station": "«Կապանի թիվ 4 ՆՈՒՀ ՀՈԱԿ                   Շահումյան փողոց, շենք 42",
    "marz": "Սյունիք",
    "community": "Կապան",
    "registry_address": "«Կապանի թիվ 4 ՆՈՒՀ ՀՈԱԿ                   Շահումյան փողոց, շենք 42",
    "source": "cec-register",
    "savedAt": "2026-06-02T18:52:36.840Z"
  },
  "34/23": {
    "precinct": "34/23",
    "lat": 39.52292060573328,
    "lng": 46.03177942798292,
    "station": "«Սիսիանի թիվ 4 հիմնական դպրոց» ՊՈԱԿ-ի շենք, ք. Սիսիան, Շահումյան 61",
    "marz": "Սյունիք",
    "community": "Սիսիան",
    "registry_address": "«Սիսիանի թիվ 4 հիմնական դպրոց» ՊՈԱԿ-ի շենք, ք. Սիսիան, Շահումյան 61",
    "source": "cec-register",
    "savedAt": "2026-06-02T18:23:54.668Z"
  },
  "15/28": {
    "precinct": "15/28",
    "lat": 40.043616,
    "lng": 44.141197,
    "station": "Մշակույթի տան շենք, 1-ին փողոց  63-րդ շենք",
    "marz": "Արմավիր",
    "community": "Մեծամոր",
    "registry_address": "Մշակույթի տան շենք, 1-ին փողոց  63-րդ շենք",
    "source": "cec-register",
    "savedAt": "2026-06-02T17:12:29.959Z"
  },
  "8/30": {
    "precinct": "8/30",
    "lat": 40.147622,
    "lng": 44.483148,
    "station": "«Երևանի Ա. Սախարովի անվան հ.69 հիմնական դպրոց» ՊՈԱԿ, Արարատյան 26",
    "marz": "Երևան",
    "community": "Շենգավիթ",
    "registry_address": "«Երևանի Ա. Սախարովի անվան հ.69 հիմնական դպրոց» ՊՈԱԿ, Արարատյան 26",
    "source": "cec-register",
    "savedAt": "2026-06-02T17:14:03.582Z"
  },
  "26/11": {
    "precinct": "26/11",
    "lat": 40.495093479908896,
    "lng": 44.75729151332477,
    "station": "հասցե՝ ք.Հրազդան, Հարավային թաղամաս, Երևանյան 1/3, N1 ավագ  դպրոցի  շենքը",
    "marz": "Կոտայք",
    "community": "Հրազդան",
    "registry_address": "հասցե՝ ք.Հրազդան, Հարավային թաղամաս, Երևանյան 1/3, N1 ավագ  դպրոցի  շենքը",
    "source": "cec-register",
    "savedAt": "2026-06-02T18:58:59.395Z"
  },
  "1/14": {
    "precinct": "1/14",
    "lat": 40.218939,
    "lng": 44.57482,
    "station": "Գ. Բուդաղյանի անվան արվեստի դպրոց, Ալմա-Աթայի 3",
    "marz": "Երևան",
    "community": "Ավան",
    "registry_address": "Գ. Բուդաղյանի անվան արվեստի դպրոց, Ալմա-Աթայի 3",
    "source": "cec-register",
    "savedAt": "2026-06-02T18:52:36.841Z"
  },
  "34/5": {
    "precinct": "34/5",
    "lat": 39.510381480989906,
    "lng": 46.344149594047416,
    "station": "թիվ 3 նախադպրոցական ուսումնական հաստատության շենք,  ք. Գորիս, Գետափնյա փող., շ. 17",
    "marz": "Սյունիք",
    "community": "Գորիս",
    "registry_address": "թիվ 3 նախադպրոցական ուսումնական հաստատության շենք,  ք. Գորիս, Գետափնյա փող., շ. 17",
    "source": "cec-register",
    "savedAt": "2026-06-02T18:09:24.206Z"
  },
  "5/12": {
    "precinct": "5/12",
    "lat": 40.224529,
    "lng": 44.49431,
    "station": "«Երևանի Գևորգ Վարդանյանի անվան հ.192 հիմնական դպրոց» ՊՈԱԿ, 2-րդ թաղամաս",
    "marz": "Երևան",
    "community": "Դավթաշեն",
    "registry_address": "«Երևանի Գևորգ Վարդանյանի անվան հ.192 հիմնական դպրոց» ՊՈԱԿ, 2-րդ թաղամաս",
    "source": "cec-register",
    "savedAt": "2026-06-02T17:52:50.151Z"
  },
  "17/68": {
    "precinct": "17/68",
    "lat": 40.744396,
    "lng": 44.158666,
    "station": "Լեռնապարի միջնակարգ դպրոց, 1-ին փողոց, շենք 23",
    "marz": "Արագածոտն",
    "community": "Ծաղկահովիտ",
    "registry_address": "Լեռնապարի միջնակարգ դպրոց, 1-ին փողոց, շենք 23",
    "source": "cec-register",
    "savedAt": "2026-06-02T17:14:03.583Z"
  },
  "24/59": {
    "precinct": "24/59",
    "lat": 40.94567638358319,
    "lng": 44.628997131469994,
    "station": "Ձորագետի մանկապարտեզի շենք, 1-ին փող., շենք 121/1",
    "marz": "Լոռի",
    "community": "Փամբակ",
    "registry_address": "Ձորագետի մանկապարտեզի շենք, 1-ին փող., շենք 121/1",
    "source": "cec-register",
    "savedAt": "2026-06-02T17:14:03.583Z"
  },
  "14/54": {
    "precinct": "14/54",
    "lat": 40.1624933415755,
    "lng": 44.38355563131635,
    "station": "Մուսալեռի, Կոմիտասի փողոց թիվ 41",
    "marz": "Արմավիր",
    "community": "Փարաքար",
    "registry_address": "Մուսալեռի, Կոմիտասի փողոց թիվ 41",
    "source": "cec-register",
    "savedAt": "2026-06-02T18:52:36.841Z"
  },
  "4/16": {
    "precinct": "4/16",
    "lat": 40.204581,
    "lng": 44.511522,
    "station": "Երնորոգնախագիծ ինստիտուտ   Ն. Զարյան 22",
    "marz": "Երևան",
    "community": "Արաբկիր",
    "registry_address": "Երնորոգնախագիծ ինստիտուտ   Ն. Զարյան 22",
    "source": "cec-register",
    "savedAt": "2026-06-02T18:09:24.206Z"
  },
  "16/21": {
    "precinct": "16/21",
    "lat": 40.16777340418086,
    "lng": 43.95354032862574,
    "station": "միջնակարգ  դպրոցի շենք /1-ին փողոց 26 /",
    "marz": "Արմավիր",
    "community": "Արմավիր",
    "registry_address": "միջնակարգ  դպրոցի շենք /1-ին փողոց 26 /",
    "source": "cec-register",
    "savedAt": "2026-06-02T18:09:24.207Z"
  },
  "20/9": {
    "precinct": "20/9",
    "lat": 40.54700457345056,
    "lng": 44.96414347313994,
    "station": "Սևանի  Յա. Զարոբյանի անվ. թիվ 2 Հ/Դ Խաղաղության փողոց, շենք 3",
    "marz": "Գեղարքունիք",
    "community": "Սեվան",
    "registry_address": "Սևանի  Յա. Զարոբյանի անվ. թիվ 2 Հ/Դ Խաղաղության փողոց, շենք 3",
    "source": "cec-register",
    "savedAt": "2026-06-02T18:09:24.206Z"
  },
  "10/53": {
    "precinct": "10/53",
    "lat": 40.088721,
    "lng": 44.54677,
    "station": "«Երևանի Ղ. Ալիշանի անվան հ.95 միջնակարգ դպրոց» ՊՈԱԿ Նոր Զմյուռնիայի փողոց /Նուբարաշենի 13-րդ փողոց/ հ.1",
    "marz": "Երևան",
    "community": "Նուբարաշեն",
    "registry_address": "«Երևանի Ղ. Ալիշանի անվան հ.95 միջնակարգ դպրոց» ՊՈԱԿ Նոր Զմյուռնիայի փողոց /Նուբարաշենի 13-րդ փողոց/ հ.1",
    "source": "cec-register",
    "savedAt": "2026-06-02T17:14:03.583Z"
  },
  "12/22": {
    "precinct": "12/22",
    "lat": 40.043202,
    "lng": 44.543191,
    "station": "Արևշատի մշակույթի տուն, Հ. Բաղրամյան 62",
    "marz": "Արարատ",
    "community": "Արտաշատ",
    "registry_address": "Արևշատի մշակույթի տուն, Հ. Բաղրամյան 62",
    "source": "cec-register",
    "savedAt": "2026-06-02T17:14:03.583Z"
  },
  "17/28": {
    "precinct": "17/28",
    "lat": 40.590247,
    "lng": 44.357042,
    "station": "Ապարանի թիվ 2 հիմն. դպրոց, Մ. Բաղրամյան փողոց, 2-րդ փակուղի, շենք 1",
    "marz": "Արագածոտն",
    "community": "Ապարան",
    "registry_address": "Ապարանի թիվ 2 հիմն. դպրոց, Մ. Բաղրամյան փողոց, 2-րդ փակուղի, շենք 1",
    "source": "cec-register",
    "savedAt": "2026-06-02T18:52:36.840Z"
  },
  "38/13": {
    "precinct": "38/13",
    "lat": 40.776506,
    "lng": 44.969916,
    "station": "միջնակարգ դպրոց ՊՈԱԿ 1-ին փողոց թիվ 18",
    "marz": "Տավուշ",
    "community": "Դիլիջան",
    "registry_address": "միջնակարգ դպրոց ՊՈԱԿ 1-ին փողոց թիվ 18",
    "source": "cec-register",
    "savedAt": "2026-06-02T17:25:32.312Z"
  },
  "1/18": {
    "precinct": "1/18",
    "lat": 40.216699,
    "lng": 44.581072,
    "station": "Ավանի Մանկապատանեկան համալիր մարզադպրոց Ավան, Խուդյակով փող. 214",
    "marz": "Երևան",
    "community": "Ավան",
    "registry_address": "Ավանի Մանկապատանեկան համալիր մարզադպրոց Ավան, Խուդյակով փող. 214",
    "source": "cec-register",
    "savedAt": "2026-06-02T18:09:24.206Z"
  },
  "29/6": {
    "precinct": "29/6",
    "lat": 40.27626667233573,
    "lng": 44.634165269422354,
    "station": "Թիվ 10 հիմն. դպրոց, Ս.Մնացականյան 5",
    "marz": "Կոտայք",
    "community": "Աբովյան",
    "registry_address": "Թիվ 10 հիմն. դպրոց, Ս.Մնացականյան 5",
    "source": "cec-register",
    "savedAt": "2026-06-02T17:52:50.151Z"
  },
  "1/19": {
    "precinct": "1/19",
    "lat": 40.214698,
    "lng": 44.582256,
    "station": "Գ. Ստարովոյտովայի անվան 177 դպրոց Դուրյան թաղ. 24",
    "marz": "Երևան",
    "community": "Ավան",
    "registry_address": "Գ. Ստարովոյտովայի անվան 177 դպրոց Դուրյան թաղ. 24",
    "source": "cec-register",
    "savedAt": "2026-06-02T17:14:03.583Z"
  },
  "13/16": {
    "precinct": "13/16",
    "lat": 39.926136,
    "lng": 44.637043,
    "station": "Նոր Ուղու հանդիսությունների սրահ Գ․Չաուշի փող․9",
    "marz": "Արարատ",
    "community": "Վեդի",
    "registry_address": "Նոր Ուղու հանդիսությունների սրահ Գ․Չաուշի փող․9",
    "source": "cec-register",
    "savedAt": "2026-06-02T17:14:03.583Z"
  },
  "6/24": {
    "precinct": "6/24",
    "lat": 40.206942,
    "lng": 44.469734,
    "station": "«Երևանի հ․35 մսուր-մանկապարտեզ» ՀՈԱԿ, Բաշինջաղյան 184/5",
    "marz": "Երևան",
    "community": "Աջափնյակ",
    "registry_address": "«Երևանի հ․35 մսուր-մանկապարտեզ» ՀՈԱԿ, Բաշինջաղյան 184/5",
    "source": "cec-register",
    "savedAt": "2026-06-02T18:58:59.396Z"
  },
  "37/18": {
    "precinct": "37/18",
    "lat": 41.24250547355064,
    "lng": 44.823707608443044,
    "station": "Թիվ 2 դպրոցի մարզադահլիճ, փողոց 15, շենք 19",
    "marz": "Տավուշ",
    "community": "Նոյեմբերյան",
    "registry_address": "Թիվ 2 դպրոցի մարզադահլիճ, փողոց 15, շենք 19",
    "source": "cec-register",
    "savedAt": "2026-06-02T17:17:00.095Z"
  },
  "2/28": {
    "precinct": "2/28",
    "lat": 40.175257,
    "lng": 44.573492,
    "station": "Հ.118 մսուր-մանկապարտեզ, Վիլնյուսի 121",
    "marz": "Երևան",
    "community": "Նոր Նորք",
    "registry_address": "Հ.118 մսուր-մանկապարտեզ, Վիլնյուսի 121",
    "source": "cec-register",
    "savedAt": "2026-06-02T17:35:49.516Z"
  },
  "35/71": {
    "precinct": "35/71",
    "lat": 38.939117,
    "lng": 46.216716,
    "station": "Ակումբի շենք Գ. Լեհվազ 3-րդ փողոց, 20 շենք",
    "marz": "Սյունիք",
    "community": "Մեղրի",
    "registry_address": "Ակումբի շենք Գ. Լեհվազ 3-րդ փողոց, 20 շենք",
    "source": "cec-register",
    "savedAt": "2026-06-02T17:17:00.095Z"
  },
  "17/44": {
    "precinct": "17/44",
    "lat": 40.479858,
    "lng": 44.388274,
    "station": "Շենավանի մշակույթի տուն, 1-ին փողոց, շենք 4",
    "marz": "Արագածոտն",
    "community": "Ապարան",
    "registry_address": "Շենավանի մշակույթի տուն, 1-ին փողոց, շենք 4",
    "source": "cec-register",
    "savedAt": "2026-06-02T18:52:36.841Z"
  },